{
  "data": [
    {
      "route_int_id": 652,
      "route_name": "PODUTIK",
      "station_lng": 14.5168527242346,
      "station_direction": "\u2192",
      "station_name": "Hrvatski trg",
      "station_ref_id": 402011,
      "station_lat": 46.0524970098127,
      "route_num": "5",
      "station_int_id": 2049,
      "route_num_sub": ""
    },
    {
      "route_int_id": 652,
      "route_name": "PODUTIK",
      "station_lng": 14.5168527242346,
      "station_direction": "\u2192",
      "station_name": "Hrvatski trg",
      "station_ref_id": 402011,
      "station_lat": 46.0524970098127,
      "route_num": "5",
      "station_int_id": 2049,
      "route_num_sub": ""
    },
    {
      "route_int_id": 652,
      "route_name": "PODUTIK",
      "station_lng": 14.5168527242346,
      "station_direction": "\u2192",
      "station_name": "Hrvatski trg",
      "station_ref_id": 402011,
      "station_lat": 46.0524970098127,
      "route_num": "5",
      "station_int_id": 2049,
      "route_num_sub": ""
    },
    {
      "route_int_id": 792,
      "route_name": "BE\u017dIGRAD",
      "station_lng": 14.5495750133502,
      "station_direction": "\u2192",
      "station_name": "Pot na Fu\u017eine",
      "station_ref_id": 303051,
      "station_lat": 46.0562549828926,
      "route_num": "11",
      "station_int_id": 2112,
      "route_num_sub": "B"
    },
    {
      "route_int_id": 792,
      "route_name": "BE\u017dIGRAD",
      "station_lng": 14.5495750133502,
      "station_direction": "\u2192",
      "station_name": "Pot na Fu\u017eine",
      "station_ref_id": 303051,
      "station_lat": 46.0562549828926,
      "route_num": "11",
      "station_int_id": 2112,
      "route_num_sub": "B"
    },
    {
      "route_int_id": 792,
      "route_name": "BE\u017dIGRAD",
      "station_lng": 14.5495750133502,
      "station_direction": "\u2192",
      "station_name": "Pot na Fu\u017eine",
      "station_ref_id": 303051,
      "station_lat": 46.0562549828926,
      "route_num": "11",
      "station_int_id": 2112,
      "route_num_sub": "B"
    },
    {
      "route_int_id": 792,
      "route_name": "BE\u017dIGRAD",
      "station_lng": 14.5495750133502,
      "station_direction": "\u2192",
      "station_name": "Pot na Fu\u017eine",
      "station_ref_id": 303051,
      "station_lat": 46.0562549828926,
      "route_num": "11",
      "station_int_id": 2112,
      "route_num_sub": "B"
    },
    {
      "route_int_id": 792,
      "route_name": "BE\u017dIGRAD",
      "station_lng": 14.5495750133502,
      "station_direction": "\u2192",
      "station_name": "Pot na Fu\u017eine",
      "station_ref_id": 303051,
      "station_lat": 46.0562549828926,
      "route_num": "11",
      "station_int_id": 2112,
      "route_num_sub": "B"
    },
    {
      "route_int_id": 792,
      "route_name": "BE\u017dIGRAD",
      "station_lng": 14.5495750133502,
      "station_direction": "\u2192",
      "station_name": "Pot na Fu\u017eine",
      "station_ref_id": 303051,
      "station_lat": 46.0562549828926,
      "route_num": "11",
      "station_int_id": 2112,
      "route_num_sub": "B"
    },
    {
      "route_int_id": 792,
      "route_name": "BE\u017dIGRAD",
      "station_lng": 14.5495750133502,
      "station_direction": "\u2192",
      "station_name": "Pot na Fu\u017eine",
      "station_ref_id": 303051,
      "station_lat": 46.0562549828926,
      "route_num": "11",
      "station_int_id": 2112,
      "route_num_sub": "B"
    },
    {
      "route_int_id": 792,
      "route_name": "BE\u017dIGRAD",
      "station_lng": 14.5495750133502,
      "station_direction": "\u2192",
      "station_name": "Pot na Fu\u017eine",
      "station_ref_id": 303051,
      "station_lat": 46.0562549828926,
      "route_num": "11",
      "station_int_id": 2112,
      "route_num_sub": "B"
    },
    {
      "route_int_id": 792,
      "route_name": "BE\u017dIGRAD",
      "station_lng": 14.5495750133502,
      "station_direction": "\u2192",
      "station_name": "Pot na Fu\u017eine",
      "station_ref_id": 303051,
      "station_lat": 46.0562549828926,
      "route_num": "11",
      "station_int_id": 2112,
      "route_num_sub": "B"
    },
    {
      "route_int_id": 792,
      "route_name": "BE\u017dIGRAD",
      "station_lng": 14.5495750133502,
      "station_direction": "\u2192",
      "station_name": "Pot na Fu\u017eine",
      "station_ref_id": 303051,
      "station_lat": 46.0562549828926,
      "route_num": "11",
      "station_int_id": 2112,
      "route_num_sub": "B"
    },
    {
      "route_int_id": 792,
      "route_name": "BE\u017dIGRAD",
      "station_lng": 14.5495750133502,
      "station_direction": "\u2192",
      "station_name": "Pot na Fu\u017eine",
      "station_ref_id": 303051,
      "station_lat": 46.0562549828926,
      "route_num": "11",
      "station_int_id": 2112,
      "route_num_sub": "B"
    },
    {
      "route_int_id": 792,
      "route_name": "BE\u017dIGRAD",
      "station_lng": 14.5495750133502,
      "station_direction": "\u2192",
      "station_name": "Pot na Fu\u017eine",
      "station_ref_id": 303051,
      "station_lat": 46.0562549828926,
      "route_num": "11",
      "station_int_id": 2112,
      "route_num_sub": "B"
    },
    {
      "route_int_id": 792,
      "route_name": "BE\u017dIGRAD",
      "station_lng": 14.5495750133502,
      "station_direction": "\u2192",
      "station_name": "Pot na Fu\u017eine",
      "station_ref_id": 303051,
      "station_lat": 46.0562549828926,
      "route_num": "11",
      "station_int_id": 2112,
      "route_num_sub": "B"
    },
    {
      "route_int_id": 792,
      "route_name": "BE\u017dIGRAD",
      "station_lng": 14.5495750133502,
      "station_direction": "\u2192",
      "station_name": "Pot na Fu\u017eine",
      "station_ref_id": 303051,
      "station_lat": 46.0562549828926,
      "route_num": "11",
      "station_int_id": 2112,
      "route_num_sub": "B"
    },
    {
      "route_int_id": 1176,
      "route_name": "BARJE",
      "station_lng": 14.5273421781761,
      "station_direction": "\u2192",
      "station_name": "Toma\u010devska",
      "station_ref_id": 203031,
      "station_lat": 46.0695306961881,
      "route_num": "19",
      "station_int_id": 2311,
      "route_num_sub": ""
    },
    {
      "route_int_id": 1176,
      "route_name": "BARJE",
      "station_lng": 14.5273421781761,
      "station_direction": "\u2192",
      "station_name": "Toma\u010devska",
      "station_ref_id": 203031,
      "station_lat": 46.0695306961881,
      "route_num": "19",
      "station_int_id": 2311,
      "route_num_sub": ""
    },
    {
      "route_int_id": 1176,
      "route_name": "BARJE",
      "station_lng": 14.5273421781761,
      "station_direction": "\u2192",
      "station_name": "Toma\u010devska",
      "station_ref_id": 203031,
      "station_lat": 46.0695306961881,
      "route_num": "19",
      "station_int_id": 2311,
      "route_num_sub": ""
    },
    {
      "route_int_id": 1176,
      "route_name": "BARJE",
      "station_lng": 14.5273421781761,
      "station_direction": "\u2192",
      "station_name": "Toma\u010devska",
      "station_ref_id": 203031,
      "station_lat": 46.0695306961881,
      "route_num": "19",
      "station_int_id": 2311,
      "route_num_sub": ""
    },
    {
      "route_int_id": 1176,
      "route_name": "BARJE",
      "station_lng": 14.5273421781761,
      "station_direction": "\u2192",
      "station_name": "Toma\u010devska",
      "station_ref_id": 203031,
      "station_lat": 46.0695306961881,
      "route_num": "19",
      "station_int_id": 2311,
      "route_num_sub": ""
    },
    {
      "route_num_sub": "",
      "station_name": "IMP",
      "route_int_id": 799,
      "route_name": "GAMELJNE",
      "station_ref_id": 804162,
      "route_num": "8",
      "station_lat": 46.0893348633412,
      "station_lng": 14.4773244519037,
      "station_int_id": 1901,
      "station_direction": ""
    },
    {
      "route_int_id": 652,
      "route_name": "PODUTIK",
      "station_lng": 14.5264661162759,
      "station_direction": "\u2192",
      "station_name": "Glonarjeva",
      "station_ref_id": 402051,
      "station_lat": 46.0502893202748,
      "route_num": "5",
      "station_int_id": 2055,
      "route_num_sub": ""
    },
    {
      "route_int_id": 652,
      "route_name": "PODUTIK",
      "station_lng": 14.5264661162759,
      "station_direction": "\u2192",
      "station_name": "Glonarjeva",
      "station_ref_id": 402051,
      "station_lat": 46.0502893202748,
      "route_num": "5",
      "station_int_id": 2055,
      "route_num_sub": ""
    },
    {
      "route_int_id": 652,
      "route_name": "PODUTIK",
      "station_lng": 14.5264661162759,
      "station_direction": "\u2192",
      "station_name": "Glonarjeva",
      "station_ref_id": 402051,
      "station_lat": 46.0502893202748,
      "route_num": "5",
      "station_int_id": 2055,
      "route_num_sub": ""
    },
    {
      "route_int_id": 1145,
      "route_name": "GROSUPLJE",
      "station_lng": 14.5483521950888,
      "station_direction": "",
      "station_name": "Pod Hribom",
      "station_ref_id": 504072,
      "station_lat": 46.0064156609062,
      "route_num": "3",
      "station_int_id": 3490,
      "route_num_sub": "G"
    },
    {
      "route_int_id": 1145,
      "route_name": "GROSUPLJE",
      "station_lng": 14.5483521950888,
      "station_direction": "",
      "station_name": "Pod Hribom",
      "station_ref_id": 504072,
      "station_lat": 46.0064156609062,
      "route_num": "3",
      "station_int_id": 3490,
      "route_num_sub": "G"
    },
    {
      "route_int_id": 1145,
      "route_name": "GROSUPLJE",
      "station_lng": 14.5483521950888,
      "station_direction": "",
      "station_name": "Pod Hribom",
      "station_ref_id": 504072,
      "station_lat": 46.0064156609062,
      "route_num": "3",
      "station_int_id": 3490,
      "route_num_sub": "G"
    },
    {
      "route_int_id": 1576,
      "route_name": "GARA\u017dA",
      "station_lng": 14.5276550152748,
      "station_direction": "\u2192",
      "station_name": "Jur\u010dkova",
      "station_ref_id": 504041,
      "station_lat": 46.0265681277864,
      "route_num": "27",
      "station_int_id": 3324,
      "route_num_sub": ""
    },
    {
      "route_int_id": 1576,
      "route_name": "GARA\u017dA",
      "station_lng": 14.5276550152748,
      "station_direction": "\u2192",
      "station_name": "Jur\u010dkova",
      "station_ref_id": 504041,
      "station_lat": 46.0265681277864,
      "route_num": "27",
      "station_int_id": 3324,
      "route_num_sub": ""
    },
    {
      "route_int_id": 1372,
      "route_name": "ZALOG",
      "station_lng": 14.5163895242491,
      "station_direction": "\u2192",
      "station_name": "Gasilska brigada",
      "station_ref_id": 102031,
      "station_lat": 46.0683122204821,
      "route_num": "20",
      "station_int_id": 2329,
      "route_num_sub": "Z"
    },
    {
      "route_int_id": 1372,
      "route_name": "ZALOG",
      "station_lng": 14.5163895242491,
      "station_direction": "\u2192",
      "station_name": "Gasilska brigada",
      "station_ref_id": 102031,
      "station_lat": 46.0683122204821,
      "route_num": "20",
      "station_int_id": 2329,
      "route_num_sub": "Z"
    },
    {
      "route_int_id": 1372,
      "route_name": "ZALOG",
      "station_lng": 14.5163895242491,
      "station_direction": "\u2192",
      "station_name": "Gasilska brigada",
      "station_ref_id": 102031,
      "station_lat": 46.0683122204821,
      "route_num": "20",
      "station_int_id": 2329,
      "route_num_sub": "Z"
    },
    {
      "route_int_id": 1372,
      "route_name": "ZALOG",
      "station_lng": 14.5163895242491,
      "station_direction": "\u2192",
      "station_name": "Gasilska brigada",
      "station_ref_id": 102031,
      "station_lat": 46.0683122204821,
      "route_num": "20",
      "station_int_id": 2329,
      "route_num_sub": "Z"
    },
    {
      "route_int_id": 1372,
      "route_name": "ZALOG",
      "station_lng": 14.5163895242491,
      "station_direction": "\u2192",
      "station_name": "Gasilska brigada",
      "station_ref_id": 102031,
      "station_lat": 46.0683122204821,
      "route_num": "20",
      "station_int_id": 2329,
      "route_num_sub": "Z"
    },
    {
      "route_int_id": 1387,
      "route_name": "KOLODVOR",
      "station_lng": 14.5075294684764,
      "station_direction": "\u2192",
      "station_name": "Gorjan\u010deva",
      "station_ref_id": 103091,
      "station_lat": 46.0849519977653,
      "route_num": "18",
      "station_int_id": 2213,
      "route_num_sub": ""
    },
    {
      "route_int_id": 1387,
      "route_name": "KOLODVOR",
      "station_lng": 14.5075294684764,
      "station_direction": "\u2192",
      "station_name": "Gorjan\u010deva",
      "station_ref_id": 103091,
      "station_lat": 46.0849519977653,
      "route_num": "18",
      "station_int_id": 2213,
      "route_num_sub": ""
    },
    {
      "route_int_id": 1387,
      "route_name": "KOLODVOR",
      "station_lng": 14.5075294684764,
      "station_direction": "\u2192",
      "station_name": "Gorjan\u010deva",
      "station_ref_id": 103091,
      "station_lat": 46.0849519977653,
      "route_num": "18",
      "station_int_id": 2213,
      "route_num_sub": ""
    },
    {
      "route_int_id": 1387,
      "route_name": "KOLODVOR",
      "station_lng": 14.5075294684764,
      "station_direction": "\u2192",
      "station_name": "Gorjan\u010deva",
      "station_ref_id": 103091,
      "station_lat": 46.0849519977653,
      "route_num": "18",
      "station_int_id": 2213,
      "route_num_sub": ""
    },
    {
      "route_int_id": 1640,
      "route_name": "KOLODVOR",
      "station_lng": 14.4850548474213,
      "station_direction": "",
      "station_name": "\u0160i\u0161enska",
      "station_ref_id": 803016,
      "station_lat": 46.0737811474814,
      "route_num": "18",
      "station_int_id": 2044,
      "route_num_sub": "L"
    },
    {
      "route_int_id": 1640,
      "route_name": "KOLODVOR",
      "station_lng": 14.4850548474213,
      "station_direction": "",
      "station_name": "\u0160i\u0161enska",
      "station_ref_id": 803016,
      "station_lat": 46.0737811474814,
      "route_num": "18",
      "station_int_id": 2044,
      "route_num_sub": "L"
    },
    {
      "route_int_id": 1640,
      "route_name": "KOLODVOR",
      "station_lng": 14.4850548474213,
      "station_direction": "",
      "station_name": "\u0160i\u0161enska",
      "station_ref_id": 803016,
      "station_lat": 46.0737811474814,
      "route_num": "18",
      "station_int_id": 2044,
      "route_num_sub": "L"
    },
    {
      "route_int_id": 1640,
      "route_name": "KOLODVOR",
      "station_lng": 14.4850548474213,
      "station_direction": "",
      "station_name": "\u0160i\u0161enska",
      "station_ref_id": 803016,
      "station_lat": 46.0737811474814,
      "route_num": "18",
      "station_int_id": 2044,
      "route_num_sub": "L"
    },
    {
      "route_int_id": 1640,
      "route_name": "KOLODVOR",
      "station_lng": 14.4850548474213,
      "station_direction": "",
      "station_name": "\u0160i\u0161enska",
      "station_ref_id": 803016,
      "station_lat": 46.0737811474814,
      "route_num": "18",
      "station_int_id": 2044,
      "route_num_sub": "L"
    },
    {
      "route_int_id": 1640,
      "route_name": "KOLODVOR",
      "station_lng": 14.4850548474213,
      "station_direction": "",
      "station_name": "\u0160i\u0161enska",
      "station_ref_id": 803016,
      "station_lat": 46.0737811474814,
      "route_num": "18",
      "station_int_id": 2044,
      "route_num_sub": "L"
    },
    {
      "route_int_id": 1586,
      "route_name": "\u0160TEPANJSKO NAS.",
      "station_lng": 14.5007129425827,
      "station_direction": "\u2192",
      "station_name": "Mirje",
      "station_ref_id": 602071,
      "station_lat": 46.0446703595961,
      "route_num": "9",
      "station_int_id": 2103,
      "route_num_sub": ""
    },
    {
      "route_int_id": 1586,
      "route_name": "\u0160TEPANJSKO NAS.",
      "station_lng": 14.5007129425827,
      "station_direction": "\u2192",
      "station_name": "Mirje",
      "station_ref_id": 602071,
      "station_lat": 46.0446703595961,
      "route_num": "9",
      "station_int_id": 2103,
      "route_num_sub": ""
    },
    {
      "route_int_id": 1387,
      "route_name": "KOLODVOR",
      "station_lng": 14.51221,
      "station_direction": "",
      "station_name": "AMZS",
      "station_ref_id": 103032,
      "station_lat": 46.07735,
      "route_num": "18",
      "station_int_id": 2082,
      "route_num_sub": ""
    },
    {
      "route_int_id": 1387,
      "route_name": "KOLODVOR",
      "station_lng": 14.51221,
      "station_direction": "",
      "station_name": "AMZS",
      "station_ref_id": 103032,
      "station_lat": 46.07735,
      "route_num": "18",
      "station_int_id": 2082,
      "route_num_sub": ""
    },
    {
      "route_int_id": 1387,
      "route_name": "KOLODVOR",
      "station_lng": 14.51221,
      "station_direction": "",
      "station_name": "AMZS",
      "station_ref_id": 103032,
      "station_lat": 46.07735,
      "route_num": "18",
      "station_int_id": 2082,
      "route_num_sub": ""
    },
    {
      "route_int_id": 1387,
      "route_name": "KOLODVOR",
      "station_lng": 14.51221,
      "station_direction": "",
      "station_name": "AMZS",
      "station_ref_id": 103032,
      "station_lat": 46.07735,
      "route_num": "18",
      "station_int_id": 2082,
      "route_num_sub": ""
    },
    {
      "route_int_id": 1387,
      "route_name": "KOLODVOR",
      "station_lng": 14.51221,
      "station_direction": "",
      "station_name": "AMZS",
      "station_ref_id": 103032,
      "station_lat": 46.07735,
      "route_num": "18",
      "station_int_id": 2082,
      "route_num_sub": ""
    },
    {
      "route_int_id": 1145,
      "route_name": "GROSUPLJE",
      "station_lng": 14.5404867282094,
      "station_direction": "",
      "station_name": "Spodnji Rudnik",
      "station_ref_id": 504022,
      "station_lat": 46.022754200005,
      "route_num": "3",
      "station_int_id": 2029,
      "route_num_sub": "G"
    },
    {
      "route_int_id": 1145,
      "route_name": "GROSUPLJE",
      "station_lng": 14.5404867282094,
      "station_direction": "",
      "station_name": "Spodnji Rudnik",
      "station_ref_id": 504022,
      "station_lat": 46.022754200005,
      "route_num": "3",
      "station_int_id": 2029,
      "route_num_sub": "G"
    },
    {
      "route_int_id": 1145,
      "route_name": "GROSUPLJE",
      "station_lng": 14.5404867282094,
      "station_direction": "",
      "station_name": "Spodnji Rudnik",
      "station_ref_id": 504022,
      "station_lat": 46.022754200005,
      "route_num": "3",
      "station_int_id": 2029,
      "route_num_sub": "G"
    },
    {
      "route_int_id": 1145,
      "route_name": "GROSUPLJE",
      "station_lng": 14.5404867282094,
      "station_direction": "",
      "station_name": "Spodnji Rudnik",
      "station_ref_id": 504022,
      "station_lat": 46.022754200005,
      "route_num": "3",
      "station_int_id": 2029,
      "route_num_sub": "G"
    },
    {
      "route_int_id": 1145,
      "route_name": "GROSUPLJE",
      "station_lng": 14.5404867282094,
      "station_direction": "",
      "station_name": "Spodnji Rudnik",
      "station_ref_id": 504022,
      "station_lat": 46.022754200005,
      "route_num": "3",
      "station_int_id": 2029,
      "route_num_sub": "G"
    },
    {
      "route_int_id": 1145,
      "route_name": "GROSUPLJE",
      "station_lng": 14.5404867282094,
      "station_direction": "",
      "station_name": "Spodnji Rudnik",
      "station_ref_id": 504022,
      "station_lat": 46.022754200005,
      "route_num": "3",
      "station_int_id": 2029,
      "route_num_sub": "G"
    },
    {
      "route_num_sub": "",
      "station_name": "Goluhova",
      "route_int_id": 730,
      "route_name": "N.S. RUDNIK",
      "station_ref_id": 603152,
      "route_num": "27",
      "station_lat": 46.0310197800233,
      "station_lng": 14.5174631046781,
      "station_int_id": 3716,
      "station_direction": ""
    },
    {
      "route_int_id": 1045,
      "route_name": "GARA\u017dA",
      "station_lng": 14.4552457075807,
      "station_direction": "\u2192",
      "station_name": "Vrhovci",
      "station_ref_id": 704031,
      "station_lat": 46.0439071594799,
      "route_num": "14",
      "station_int_id": 2180,
      "route_num_sub": ""
    },
    {
      "route_int_id": 1045,
      "route_name": "GARA\u017dA",
      "station_lng": 14.4552457075807,
      "station_direction": "\u2192",
      "station_name": "Vrhovci",
      "station_ref_id": 704031,
      "station_lat": 46.0439071594799,
      "route_num": "14",
      "station_int_id": 2180,
      "route_num_sub": ""
    },
    {
      "route_num_sub": "",
      "station_name": "Cesta XV",
      "route_int_id": 987,
      "route_name": "BOKALCE",
      "station_ref_id": 703022,
      "route_num": "14",
      "station_lat": 46.0466046027991,
      "station_lng": 14.4802774130743,
      "station_int_id": 2225,
      "station_direction": ""
    },
    {
      "route_int_id": 1640,
      "route_name": "KOLODVOR",
      "station_lng": 14.4809774479051,
      "station_direction": "",
      "station_name": "Kneza Koclja",
      "station_ref_id": 803082,
      "station_lat": 46.0717449040447,
      "route_num": "18",
      "station_int_id": 2042,
      "route_num_sub": "L"
    },
    {
      "route_int_id": 1640,
      "route_name": "KOLODVOR",
      "station_lng": 14.4809774479051,
      "station_direction": "",
      "station_name": "Kneza Koclja",
      "station_ref_id": 803082,
      "station_lat": 46.0717449040447,
      "route_num": "18",
      "station_int_id": 2042,
      "route_num_sub": "L"
    },
    {
      "route_int_id": 1640,
      "route_name": "KOLODVOR",
      "station_lng": 14.4809774479051,
      "station_direction": "",
      "station_name": "Kneza Koclja",
      "station_ref_id": 803082,
      "station_lat": 46.0717449040447,
      "route_num": "18",
      "station_int_id": 2042,
      "route_num_sub": "L"
    },
    {
      "route_int_id": 1640,
      "route_name": "KOLODVOR",
      "station_lng": 14.4809774479051,
      "station_direction": "",
      "station_name": "Kneza Koclja",
      "station_ref_id": 803082,
      "station_lat": 46.0717449040447,
      "route_num": "18",
      "station_int_id": 2042,
      "route_num_sub": "L"
    },
    {
      "route_int_id": 1640,
      "route_name": "KOLODVOR",
      "station_lng": 14.4809774479051,
      "station_direction": "",
      "station_name": "Kneza Koclja",
      "station_ref_id": 803082,
      "station_lat": 46.0717449040447,
      "route_num": "18",
      "station_int_id": 2042,
      "route_num_sub": "L"
    },
    {
      "route_int_id": 1640,
      "route_name": "KOLODVOR",
      "station_lng": 14.4809774479051,
      "station_direction": "",
      "station_name": "Kneza Koclja",
      "station_ref_id": 803082,
      "station_lat": 46.0717449040447,
      "route_num": "18",
      "station_int_id": 2042,
      "route_num_sub": "L"
    },
    {
      "route_int_id": 789,
      "route_name": "C. STO\u017dICE P+R",
      "station_lng": 14.5719944841569,
      "station_direction": "",
      "station_name": "Bizovik",
      "station_ref_id": 404121,
      "station_lat": 46.0378720155047,
      "route_num": "24",
      "station_int_id": 3364,
      "route_num_sub": ""
    },
    {
      "route_int_id": 789,
      "route_name": "C. STO\u017dICE P+R",
      "station_lng": 14.5719944841569,
      "station_direction": "",
      "station_name": "Bizovik",
      "station_ref_id": 404121,
      "station_lat": 46.0378720155047,
      "route_num": "24",
      "station_int_id": 3364,
      "route_num_sub": ""
    },
    {
      "route_int_id": 789,
      "route_name": "C. STO\u017dICE P+R",
      "station_lng": 14.5719944841569,
      "station_direction": "",
      "station_name": "Bizovik",
      "station_ref_id": 404121,
      "station_lat": 46.0378720155047,
      "route_num": "24",
      "station_int_id": 3364,
      "route_num_sub": ""
    },
    {
      "route_int_id": 789,
      "route_name": "C. STO\u017dICE P+R",
      "station_lng": 14.5674585490773,
      "station_direction": "",
      "station_name": "Chengdujska",
      "station_ref_id": 304042,
      "station_lat": 46.0548199178901,
      "route_num": "24",
      "station_int_id": 2119,
      "route_num_sub": ""
    },
    {
      "route_int_id": 789,
      "route_name": "C. STO\u017dICE P+R",
      "station_lng": 14.5674585490773,
      "station_direction": "",
      "station_name": "Chengdujska",
      "station_ref_id": 304042,
      "station_lat": 46.0548199178901,
      "route_num": "24",
      "station_int_id": 2119,
      "route_num_sub": ""
    },
    {
      "route_int_id": 789,
      "route_name": "C. STO\u017dICE P+R",
      "station_lng": 14.5674585490773,
      "station_direction": "",
      "station_name": "Chengdujska",
      "station_ref_id": 304042,
      "station_lat": 46.0548199178901,
      "route_num": "24",
      "station_int_id": 2119,
      "route_num_sub": ""
    },
    {
      "route_int_id": 789,
      "route_name": "C. STO\u017dICE P+R",
      "station_lng": 14.5674585490773,
      "station_direction": "",
      "station_name": "Chengdujska",
      "station_ref_id": 304042,
      "station_lat": 46.0548199178901,
      "route_num": "24",
      "station_int_id": 2119,
      "route_num_sub": ""
    },
    {
      "route_int_id": 789,
      "route_name": "C. STO\u017dICE P+R",
      "station_lng": 14.5674585490773,
      "station_direction": "",
      "station_name": "Chengdujska",
      "station_ref_id": 304042,
      "station_lat": 46.0548199178901,
      "route_num": "24",
      "station_int_id": 2119,
      "route_num_sub": ""
    },
    {
      "route_int_id": 789,
      "route_name": "C. STO\u017dICE P+R",
      "station_lng": 14.5674585490773,
      "station_direction": "",
      "station_name": "Chengdujska",
      "station_ref_id": 304042,
      "station_lat": 46.0548199178901,
      "route_num": "24",
      "station_int_id": 2119,
      "route_num_sub": ""
    },
    {
      "route_int_id": 1045,
      "route_name": "GARA\u017dA",
      "station_lng": 14.4822085265935,
      "station_direction": "\u2192",
      "station_name": "Ro\u017ena dolina",
      "station_ref_id": 703011,
      "station_lat": 46.0477793973284,
      "route_num": "14",
      "station_int_id": 2192,
      "route_num_sub": ""
    },
    {
      "route_int_id": 1045,
      "route_name": "GARA\u017dA",
      "station_lng": 14.4822085265935,
      "station_direction": "\u2192",
      "station_name": "Ro\u017ena dolina",
      "station_ref_id": 703011,
      "station_lat": 46.0477793973284,
      "route_num": "14",
      "station_int_id": 2192,
      "route_num_sub": ""
    },
    {
      "route_int_id": 726,
      "route_name": "ZADOBROVA",
      "station_lng": 14.5586838234352,
      "station_direction": "",
      "station_name": "Preglov trg",
      "station_ref_id": 304012,
      "station_lat": 46.0545282823353,
      "route_num": "25",
      "station_int_id": 2116,
      "route_num_sub": ""
    },
    {
      "route_int_id": 726,
      "route_name": "ZADOBROVA",
      "station_lng": 14.5586838234352,
      "station_direction": "",
      "station_name": "Preglov trg",
      "station_ref_id": 304012,
      "station_lat": 46.0545282823353,
      "route_num": "25",
      "station_int_id": 2116,
      "route_num_sub": ""
    },
    {
      "route_int_id": 726,
      "route_name": "ZADOBROVA",
      "station_lng": 14.5586838234352,
      "station_direction": "",
      "station_name": "Preglov trg",
      "station_ref_id": 304012,
      "station_lat": 46.0545282823353,
      "route_num": "25",
      "station_int_id": 2116,
      "route_num_sub": ""
    },
    {
      "route_int_id": 726,
      "route_name": "ZADOBROVA",
      "station_lng": 14.5586838234352,
      "station_direction": "",
      "station_name": "Preglov trg",
      "station_ref_id": 304012,
      "station_lat": 46.0545282823353,
      "route_num": "25",
      "station_int_id": 2116,
      "route_num_sub": ""
    },
    {
      "route_num_sub": "",
      "station_name": "Jamnikarjeva",
      "route_int_id": 987,
      "route_name": "BOKALCE",
      "station_ref_id": 703032,
      "route_num": "14",
      "station_lat": 46.0451372022588,
      "station_lng": 14.4744900543158,
      "station_int_id": 2189,
      "station_direction": ""
    },
    {
      "route_int_id": 1409,
      "route_name": "BE\u017dIGRAD",
      "station_lng": 14.5101806614003,
      "station_direction": "",
      "station_name": "Be\u017eigrad",
      "station_ref_id": 101032,
      "station_lat": 46.063337242755,
      "route_num": "6",
      "station_int_id": 1875,
      "route_num_sub": "B"
    },
    {
      "route_int_id": 1409,
      "route_name": "BE\u017dIGRAD",
      "station_lng": 14.5101806614003,
      "station_direction": "",
      "station_name": "Be\u017eigrad",
      "station_ref_id": 101032,
      "station_lat": 46.063337242755,
      "route_num": "6",
      "station_int_id": 1875,
      "route_num_sub": "B"
    },
    {
      "route_int_id": 1409,
      "route_name": "BE\u017dIGRAD",
      "station_lng": 14.5101806614003,
      "station_direction": "",
      "station_name": "Be\u017eigrad",
      "station_ref_id": 101032,
      "station_lat": 46.063337242755,
      "route_num": "6",
      "station_int_id": 1875,
      "route_num_sub": "B"
    },
    {
      "route_int_id": 1409,
      "route_name": "BE\u017dIGRAD",
      "station_lng": 14.5101806614003,
      "station_direction": "",
      "station_name": "Be\u017eigrad",
      "station_ref_id": 101032,
      "station_lat": 46.063337242755,
      "route_num": "6",
      "station_int_id": 1875,
      "route_num_sub": "B"
    },
    {
      "route_int_id": 1409,
      "route_name": "BE\u017dIGRAD",
      "station_lng": 14.5101806614003,
      "station_direction": "",
      "station_name": "Be\u017eigrad",
      "station_ref_id": 101032,
      "station_lat": 46.063337242755,
      "route_num": "6",
      "station_int_id": 1875,
      "route_num_sub": "B"
    },
    {
      "route_int_id": 1409,
      "route_name": "BE\u017dIGRAD",
      "station_lng": 14.5101806614003,
      "station_direction": "",
      "station_name": "Be\u017eigrad",
      "station_ref_id": 101032,
      "station_lat": 46.063337242755,
      "route_num": "6",
      "station_int_id": 1875,
      "route_num_sub": "B"
    },
    {
      "route_int_id": 1409,
      "route_name": "BE\u017dIGRAD",
      "station_lng": 14.5101806614003,
      "station_direction": "",
      "station_name": "Be\u017eigrad",
      "station_ref_id": 101032,
      "station_lat": 46.063337242755,
      "route_num": "6",
      "station_int_id": 1875,
      "route_num_sub": "B"
    },
    {
      "route_int_id": 1636,
      "route_name": "GAMELJNE",
      "station_lng": 14.4783480068958,
      "station_direction": "",
      "station_name": "Dravlje",
      "station_ref_id": 803042,
      "station_lat": 46.0835599023968,
      "route_num": "1",
      "station_int_id": 1928,
      "route_num_sub": "D"
    },
    {
      "route_int_id": 1636,
      "route_name": "GAMELJNE",
      "station_lng": 14.4783480068958,
      "station_direction": "",
      "station_name": "Dravlje",
      "station_ref_id": 803042,
      "station_lat": 46.0835599023968,
      "route_num": "1",
      "station_int_id": 1928,
      "route_num_sub": "D"
    },
    {
      "route_int_id": 1636,
      "route_name": "GAMELJNE",
      "station_lng": 14.4783480068958,
      "station_direction": "",
      "station_name": "Dravlje",
      "station_ref_id": 803042,
      "station_lat": 46.0835599023968,
      "route_num": "1",
      "station_int_id": 1928,
      "route_num_sub": "D"
    },
    {
      "route_int_id": 1636,
      "route_name": "GAMELJNE",
      "station_lng": 14.4783480068958,
      "station_direction": "",
      "station_name": "Dravlje",
      "station_ref_id": 803042,
      "station_lat": 46.0835599023968,
      "route_num": "1",
      "station_int_id": 1928,
      "route_num_sub": "D"
    },
    {
      "route_int_id": 1636,
      "route_name": "GAMELJNE",
      "station_lng": 14.4783480068958,
      "station_direction": "",
      "station_name": "Dravlje",
      "station_ref_id": 803042,
      "station_lat": 46.0835599023968,
      "route_num": "1",
      "station_int_id": 1928,
      "route_num_sub": "D"
    },
    {
      "route_int_id": 1636,
      "route_name": "GAMELJNE",
      "station_lng": 14.4783480068958,
      "station_direction": "",
      "station_name": "Dravlje",
      "station_ref_id": 803042,
      "station_lat": 46.0835599023968,
      "route_num": "1",
      "station_int_id": 1928,
      "route_num_sub": "D"
    },
    {
      "route_int_id": 1636,
      "route_name": "GAMELJNE",
      "station_lng": 14.4783480068958,
      "station_direction": "",
      "station_name": "Dravlje",
      "station_ref_id": 803042,
      "station_lat": 46.0835599023968,
      "route_num": "1",
      "station_int_id": 1928,
      "route_num_sub": "D"
    },
    {
      "route_int_id": 1636,
      "route_name": "GAMELJNE",
      "station_lng": 14.4783480068958,
      "station_direction": "",
      "station_name": "Dravlje",
      "station_ref_id": 803042,
      "station_lat": 46.0835599023968,
      "route_num": "1",
      "station_int_id": 1928,
      "route_num_sub": "D"
    },
    {
      "route_int_id": 1636,
      "route_name": "GAMELJNE",
      "station_lng": 14.4783480068958,
      "station_direction": "",
      "station_name": "Dravlje",
      "station_ref_id": 803042,
      "station_lat": 46.0835599023968,
      "route_num": "1",
      "station_int_id": 1928,
      "route_num_sub": "D"
    },
    {
      "route_int_id": 1636,
      "route_name": "GAMELJNE",
      "station_lng": 14.4783480068958,
      "station_direction": "",
      "station_name": "Dravlje",
      "station_ref_id": 803042,
      "station_lat": 46.0835599023968,
      "route_num": "1",
      "station_int_id": 1928,
      "route_num_sub": "D"
    },
    {
      "route_int_id": 1636,
      "route_name": "GAMELJNE",
      "station_lng": 14.4783480068958,
      "station_direction": "",
      "station_name": "Dravlje",
      "station_ref_id": 803042,
      "station_lat": 46.0835599023968,
      "route_num": "1",
      "station_int_id": 1928,
      "route_num_sub": "D"
    },
    {
      "route_num_sub": "B",
      "station_name": "Dornig",
      "route_int_id": 1580,
      "route_name": "JEZERO",
      "station_ref_id": 614032,
      "route_num": "19",
      "station_lat": 46.0076825338998,
      "station_lng": 14.4948794584353,
      "station_int_id": 3399,
      "station_direction": ""
    },
    {
      "route_int_id": 789,
      "route_name": "C. STO\u017dICE P+R",
      "station_lng": 14.5761047898288,
      "station_direction": "",
      "station_name": "Studenec",
      "station_ref_id": 304062,
      "station_lat": 46.0544873028857,
      "route_num": "24",
      "station_int_id": 2121,
      "route_num_sub": ""
    },
    {
      "route_int_id": 789,
      "route_name": "C. STO\u017dICE P+R",
      "station_lng": 14.5761047898288,
      "station_direction": "",
      "station_name": "Studenec",
      "station_ref_id": 304062,
      "station_lat": 46.0544873028857,
      "route_num": "24",
      "station_int_id": 2121,
      "route_num_sub": ""
    },
    {
      "route_int_id": 789,
      "route_name": "C. STO\u017dICE P+R",
      "station_lng": 14.5761047898288,
      "station_direction": "",
      "station_name": "Studenec",
      "station_ref_id": 304062,
      "station_lat": 46.0544873028857,
      "route_num": "24",
      "station_int_id": 2121,
      "route_num_sub": ""
    },
    {
      "route_int_id": 789,
      "route_name": "C. STO\u017dICE P+R",
      "station_lng": 14.5761047898288,
      "station_direction": "",
      "station_name": "Studenec",
      "station_ref_id": 304062,
      "station_lat": 46.0544873028857,
      "route_num": "24",
      "station_int_id": 2121,
      "route_num_sub": ""
    },
    {
      "route_int_id": 789,
      "route_name": "C. STO\u017dICE P+R",
      "station_lng": 14.5761047898288,
      "station_direction": "",
      "station_name": "Studenec",
      "station_ref_id": 304062,
      "station_lat": 46.0544873028857,
      "route_num": "24",
      "station_int_id": 2121,
      "route_num_sub": ""
    },
    {
      "route_int_id": 789,
      "route_name": "C. STO\u017dICE P+R",
      "station_lng": 14.5761047898288,
      "station_direction": "",
      "station_name": "Studenec",
      "station_ref_id": 304062,
      "station_lat": 46.0544873028857,
      "route_num": "24",
      "station_int_id": 2121,
      "route_num_sub": ""
    },
    {
      "route_int_id": 730,
      "route_name": "N.S. RUDNIK",
      "station_lng": 14.5442369722116,
      "station_direction": "\u2192",
      "station_name": "BTC-tr\u017enica",
      "station_ref_id": 203121,
      "station_lat": 46.0656605142907,
      "route_num": "27",
      "station_int_id": 2248,
      "route_num_sub": ""
    },
    {
      "route_int_id": 730,
      "route_name": "N.S. RUDNIK",
      "station_lng": 14.5442369722116,
      "station_direction": "\u2192",
      "station_name": "BTC-tr\u017enica",
      "station_ref_id": 203121,
      "station_lat": 46.0656605142907,
      "route_num": "27",
      "station_int_id": 2248,
      "route_num_sub": ""
    },
    {
      "route_int_id": 730,
      "route_name": "N.S. RUDNIK",
      "station_lng": 14.5442369722116,
      "station_direction": "\u2192",
      "station_name": "BTC-tr\u017enica",
      "station_ref_id": 203121,
      "station_lat": 46.0656605142907,
      "route_num": "27",
      "station_int_id": 2248,
      "route_num_sub": ""
    },
    {
      "route_int_id": 730,
      "route_name": "N.S. RUDNIK",
      "station_lng": 14.5442369722116,
      "station_direction": "\u2192",
      "station_name": "BTC-tr\u017enica",
      "station_ref_id": 203121,
      "station_lat": 46.0656605142907,
      "route_num": "27",
      "station_int_id": 2248,
      "route_num_sub": ""
    },
    {
      "route_int_id": 730,
      "route_name": "N.S. RUDNIK",
      "station_lng": 14.5442369722116,
      "station_direction": "\u2192",
      "station_name": "BTC-tr\u017enica",
      "station_ref_id": 203121,
      "station_lat": 46.0656605142907,
      "route_num": "27",
      "station_int_id": 2248,
      "route_num_sub": ""
    },
    {
      "route_int_id": 363,
      "route_name": "VEV\u010cE",
      "station_lng": 14.5695140029539,
      "station_direction": "",
      "station_name": "Sneberje",
      "station_ref_id": 204072,
      "station_lat": 46.0778972251394,
      "route_num": "12",
      "station_int_id": 2154,
      "route_num_sub": ""
    },
    {
      "route_int_id": 363,
      "route_name": "VEV\u010cE",
      "station_lng": 14.5695140029539,
      "station_direction": "",
      "station_name": "Sneberje",
      "station_ref_id": 204072,
      "station_lat": 46.0778972251394,
      "route_num": "12",
      "station_int_id": 2154,
      "route_num_sub": ""
    },
    {
      "route_int_id": 1409,
      "route_name": "BE\u017dIGRAD",
      "station_lng": 14.5023260218633,
      "station_direction": "\u2192",
      "station_name": "Drama",
      "station_ref_id": 602021,
      "station_lat": 46.0489598659593,
      "route_num": "6",
      "station_int_id": 1947,
      "route_num_sub": "B"
    },
    {
      "route_int_id": 1409,
      "route_name": "BE\u017dIGRAD",
      "station_lng": 14.5023260218633,
      "station_direction": "\u2192",
      "station_name": "Drama",
      "station_ref_id": 602021,
      "station_lat": 46.0489598659593,
      "route_num": "6",
      "station_int_id": 1947,
      "route_num_sub": "B"
    },
    {
      "route_int_id": 1409,
      "route_name": "BE\u017dIGRAD",
      "station_lng": 14.5023260218633,
      "station_direction": "\u2192",
      "station_name": "Drama",
      "station_ref_id": 602021,
      "station_lat": 46.0489598659593,
      "route_num": "6",
      "station_int_id": 1947,
      "route_num_sub": "B"
    },
    {
      "route_int_id": 1409,
      "route_name": "BE\u017dIGRAD",
      "station_lng": 14.5023260218633,
      "station_direction": "\u2192",
      "station_name": "Drama",
      "station_ref_id": 602021,
      "station_lat": 46.0489598659593,
      "route_num": "6",
      "station_int_id": 1947,
      "route_num_sub": "B"
    },
    {
      "route_int_id": 1409,
      "route_name": "BE\u017dIGRAD",
      "station_lng": 14.5023260218633,
      "station_direction": "\u2192",
      "station_name": "Drama",
      "station_ref_id": 602021,
      "station_lat": 46.0489598659593,
      "route_num": "6",
      "station_int_id": 1947,
      "route_num_sub": "B"
    },
    {
      "route_int_id": 1409,
      "route_name": "BE\u017dIGRAD",
      "station_lng": 14.5023260218633,
      "station_direction": "\u2192",
      "station_name": "Drama",
      "station_ref_id": 602021,
      "station_lat": 46.0489598659593,
      "route_num": "6",
      "station_int_id": 1947,
      "route_num_sub": "B"
    },
    {
      "route_int_id": 1409,
      "route_name": "BE\u017dIGRAD",
      "station_lng": 14.5023260218633,
      "station_direction": "\u2192",
      "station_name": "Drama",
      "station_ref_id": 602021,
      "station_lat": 46.0489598659593,
      "route_num": "6",
      "station_int_id": 1947,
      "route_num_sub": "B"
    },
    {
      "route_int_id": 1409,
      "route_name": "BE\u017dIGRAD",
      "station_lng": 14.5023260218633,
      "station_direction": "\u2192",
      "station_name": "Drama",
      "station_ref_id": 602021,
      "station_lat": 46.0489598659593,
      "route_num": "6",
      "station_int_id": 1947,
      "route_num_sub": "B"
    },
    {
      "route_int_id": 1409,
      "route_name": "BE\u017dIGRAD",
      "station_lng": 14.5023260218633,
      "station_direction": "\u2192",
      "station_name": "Drama",
      "station_ref_id": 602021,
      "station_lat": 46.0489598659593,
      "route_num": "6",
      "station_int_id": 1947,
      "route_num_sub": "B"
    },
    {
      "route_int_id": 1409,
      "route_name": "BE\u017dIGRAD",
      "station_lng": 14.5023260218633,
      "station_direction": "\u2192",
      "station_name": "Drama",
      "station_ref_id": 602021,
      "station_lat": 46.0489598659593,
      "route_num": "6",
      "station_int_id": 1947,
      "route_num_sub": "B"
    },
    {
      "route_int_id": 1409,
      "route_name": "BE\u017dIGRAD",
      "station_lng": 14.5023260218633,
      "station_direction": "\u2192",
      "station_name": "Drama",
      "station_ref_id": 602021,
      "station_lat": 46.0489598659593,
      "route_num": "6",
      "station_int_id": 1947,
      "route_num_sub": "B"
    },
    {
      "route_int_id": 1409,
      "route_name": "BE\u017dIGRAD",
      "station_lng": 14.5023260218633,
      "station_direction": "\u2192",
      "station_name": "Drama",
      "station_ref_id": 602021,
      "station_lat": 46.0489598659593,
      "route_num": "6",
      "station_int_id": 1947,
      "route_num_sub": "B"
    },
    {
      "route_int_id": 1409,
      "route_name": "BE\u017dIGRAD",
      "station_lng": 14.5023260218633,
      "station_direction": "\u2192",
      "station_name": "Drama",
      "station_ref_id": 602021,
      "station_lat": 46.0489598659593,
      "route_num": "6",
      "station_int_id": 1947,
      "route_num_sub": "B"
    },
    {
      "route_int_id": 1409,
      "route_name": "BE\u017dIGRAD",
      "station_lng": 14.5023260218633,
      "station_direction": "\u2192",
      "station_name": "Drama",
      "station_ref_id": 602021,
      "station_lat": 46.0489598659593,
      "route_num": "6",
      "station_int_id": 1947,
      "route_num_sub": "B"
    },
    {
      "route_int_id": 1409,
      "route_name": "BE\u017dIGRAD",
      "station_lng": 14.5023260218633,
      "station_direction": "\u2192",
      "station_name": "Drama",
      "station_ref_id": 602021,
      "station_lat": 46.0489598659593,
      "route_num": "6",
      "station_int_id": 1947,
      "route_num_sub": "B"
    },
    {
      "route_int_id": 1409,
      "route_name": "BE\u017dIGRAD",
      "station_lng": 14.5023260218633,
      "station_direction": "\u2192",
      "station_name": "Drama",
      "station_ref_id": 602021,
      "station_lat": 46.0489598659593,
      "route_num": "6",
      "station_int_id": 1947,
      "route_num_sub": "B"
    },
    {
      "route_int_id": 1409,
      "route_name": "BE\u017dIGRAD",
      "station_lng": 14.5023260218633,
      "station_direction": "\u2192",
      "station_name": "Drama",
      "station_ref_id": 602021,
      "station_lat": 46.0489598659593,
      "route_num": "6",
      "station_int_id": 1947,
      "route_num_sub": "B"
    },
    {
      "route_int_id": 1409,
      "route_name": "BE\u017dIGRAD",
      "station_lng": 14.5023260218633,
      "station_direction": "\u2192",
      "station_name": "Drama",
      "station_ref_id": 602021,
      "station_lat": 46.0489598659593,
      "route_num": "6",
      "station_int_id": 1947,
      "route_num_sub": "B"
    },
    {
      "route_int_id": 1409,
      "route_name": "BE\u017dIGRAD",
      "station_lng": 14.5023260218633,
      "station_direction": "\u2192",
      "station_name": "Drama",
      "station_ref_id": 602021,
      "station_lat": 46.0489598659593,
      "route_num": "6",
      "station_int_id": 1947,
      "route_num_sub": "B"
    },
    {
      "route_int_id": 1409,
      "route_name": "BE\u017dIGRAD",
      "station_lng": 14.5023260218633,
      "station_direction": "\u2192",
      "station_name": "Drama",
      "station_ref_id": 602021,
      "station_lat": 46.0489598659593,
      "route_num": "6",
      "station_int_id": 1947,
      "route_num_sub": "B"
    },
    {
      "route_int_id": 1409,
      "route_name": "BE\u017dIGRAD",
      "station_lng": 14.5023260218633,
      "station_direction": "\u2192",
      "station_name": "Drama",
      "station_ref_id": 602021,
      "station_lat": 46.0489598659593,
      "route_num": "6",
      "station_int_id": 1947,
      "route_num_sub": "B"
    },
    {
      "route_int_id": 1409,
      "route_name": "BE\u017dIGRAD",
      "station_lng": 14.5023260218633,
      "station_direction": "\u2192",
      "station_name": "Drama",
      "station_ref_id": 602021,
      "station_lat": 46.0489598659593,
      "route_num": "6",
      "station_int_id": 1947,
      "route_num_sub": "B"
    },
    {
      "route_int_id": 1409,
      "route_name": "BE\u017dIGRAD",
      "station_lng": 14.5023260218633,
      "station_direction": "\u2192",
      "station_name": "Drama",
      "station_ref_id": 602021,
      "station_lat": 46.0489598659593,
      "route_num": "6",
      "station_int_id": 1947,
      "route_num_sub": "B"
    },
    {
      "route_int_id": 1409,
      "route_name": "BE\u017dIGRAD",
      "station_lng": 14.5023260218633,
      "station_direction": "\u2192",
      "station_name": "Drama",
      "station_ref_id": 602021,
      "station_lat": 46.0489598659593,
      "route_num": "6",
      "station_int_id": 1947,
      "route_num_sub": "B"
    },
    {
      "route_int_id": 1409,
      "route_name": "BE\u017dIGRAD",
      "station_lng": 14.5023260218633,
      "station_direction": "\u2192",
      "station_name": "Drama",
      "station_ref_id": 602021,
      "station_lat": 46.0489598659593,
      "route_num": "6",
      "station_int_id": 1947,
      "route_num_sub": "B"
    },
    {
      "route_int_id": 1409,
      "route_name": "BE\u017dIGRAD",
      "station_lng": 14.5023260218633,
      "station_direction": "\u2192",
      "station_name": "Drama",
      "station_ref_id": 602021,
      "station_lat": 46.0489598659593,
      "route_num": "6",
      "station_int_id": 1947,
      "route_num_sub": "B"
    },
    {
      "route_int_id": 1409,
      "route_name": "BE\u017dIGRAD",
      "station_lng": 14.5023260218633,
      "station_direction": "\u2192",
      "station_name": "Drama",
      "station_ref_id": 602021,
      "station_lat": 46.0489598659593,
      "route_num": "6",
      "station_int_id": 1947,
      "route_num_sub": "B"
    },
    {
      "route_int_id": 1409,
      "route_name": "BE\u017dIGRAD",
      "station_lng": 14.5023260218633,
      "station_direction": "\u2192",
      "station_name": "Drama",
      "station_ref_id": 602021,
      "station_lat": 46.0489598659593,
      "route_num": "6",
      "station_int_id": 1947,
      "route_num_sub": "B"
    },
    {
      "route_int_id": 1409,
      "route_name": "BE\u017dIGRAD",
      "station_lng": 14.5023260218633,
      "station_direction": "\u2192",
      "station_name": "Drama",
      "station_ref_id": 602021,
      "station_lat": 46.0489598659593,
      "route_num": "6",
      "station_int_id": 1947,
      "route_num_sub": "B"
    },
    {
      "route_int_id": 1409,
      "route_name": "BE\u017dIGRAD",
      "station_lng": 14.5023260218633,
      "station_direction": "\u2192",
      "station_name": "Drama",
      "station_ref_id": 602021,
      "station_lat": 46.0489598659593,
      "route_num": "6",
      "station_int_id": 1947,
      "route_num_sub": "B"
    },
    {
      "route_int_id": 1409,
      "route_name": "BE\u017dIGRAD",
      "station_lng": 14.5023260218633,
      "station_direction": "\u2192",
      "station_name": "Drama",
      "station_ref_id": 602021,
      "station_lat": 46.0489598659593,
      "route_num": "6",
      "station_int_id": 1947,
      "route_num_sub": "B"
    },
    {
      "route_int_id": 1409,
      "route_name": "BE\u017dIGRAD",
      "station_lng": 14.5023260218633,
      "station_direction": "\u2192",
      "station_name": "Drama",
      "station_ref_id": 602021,
      "station_lat": 46.0489598659593,
      "route_num": "6",
      "station_int_id": 1947,
      "route_num_sub": "B"
    },
    {
      "route_int_id": 1409,
      "route_name": "BE\u017dIGRAD",
      "station_lng": 14.5023260218633,
      "station_direction": "\u2192",
      "station_name": "Drama",
      "station_ref_id": 602021,
      "station_lat": 46.0489598659593,
      "route_num": "6",
      "station_int_id": 1947,
      "route_num_sub": "B"
    },
    {
      "route_int_id": 1146,
      "route_name": "BE\u017dIGRAD",
      "station_lng": 14.5401874811351,
      "station_direction": "\u2192",
      "station_name": "Spodnji Rudnik",
      "station_ref_id": 504021,
      "station_lat": 46.0236765791319,
      "route_num": "3",
      "station_int_id": 2028,
      "route_num_sub": "G"
    },
    {
      "route_int_id": 1146,
      "route_name": "BE\u017dIGRAD",
      "station_lng": 14.5401874811351,
      "station_direction": "\u2192",
      "station_name": "Spodnji Rudnik",
      "station_ref_id": 504021,
      "station_lat": 46.0236765791319,
      "route_num": "3",
      "station_int_id": 2028,
      "route_num_sub": "G"
    },
    {
      "route_int_id": 1146,
      "route_name": "BE\u017dIGRAD",
      "station_lng": 14.5401874811351,
      "station_direction": "\u2192",
      "station_name": "Spodnji Rudnik",
      "station_ref_id": 504021,
      "station_lat": 46.0236765791319,
      "route_num": "3",
      "station_int_id": 2028,
      "route_num_sub": "G"
    },
    {
      "route_int_id": 1146,
      "route_name": "BE\u017dIGRAD",
      "station_lng": 14.5401874811351,
      "station_direction": "\u2192",
      "station_name": "Spodnji Rudnik",
      "station_ref_id": 504021,
      "station_lat": 46.0236765791319,
      "route_num": "3",
      "station_int_id": 2028,
      "route_num_sub": "G"
    },
    {
      "route_int_id": 1146,
      "route_name": "BE\u017dIGRAD",
      "station_lng": 14.5401874811351,
      "station_direction": "\u2192",
      "station_name": "Spodnji Rudnik",
      "station_ref_id": 504021,
      "station_lat": 46.0236765791319,
      "route_num": "3",
      "station_int_id": 2028,
      "route_num_sub": "G"
    },
    {
      "route_int_id": 1146,
      "route_name": "BE\u017dIGRAD",
      "station_lng": 14.5401874811351,
      "station_direction": "\u2192",
      "station_name": "Spodnji Rudnik",
      "station_ref_id": 504021,
      "station_lat": 46.0236765791319,
      "route_num": "3",
      "station_int_id": 2028,
      "route_num_sub": "G"
    },
    {
      "route_int_id": 1146,
      "route_name": "BE\u017dIGRAD",
      "station_lng": 14.5401874811351,
      "station_direction": "\u2192",
      "station_name": "Spodnji Rudnik",
      "station_ref_id": 504021,
      "station_lat": 46.0236765791319,
      "route_num": "3",
      "station_int_id": 2028,
      "route_num_sub": "G"
    },
    {
      "route_int_id": 987,
      "route_name": "BOKALCE",
      "station_lng": 14.5121427492657,
      "station_direction": "\u2192",
      "station_name": "\u010cerinova",
      "station_ref_id": 103121,
      "station_lat": 46.0899877293292,
      "route_num": "14",
      "station_int_id": 2217,
      "route_num_sub": ""
    },
    {
      "route_int_id": 987,
      "route_name": "BOKALCE",
      "station_lng": 14.5121427492657,
      "station_direction": "\u2192",
      "station_name": "\u010cerinova",
      "station_ref_id": 103121,
      "station_lat": 46.0899877293292,
      "route_num": "14",
      "station_int_id": 2217,
      "route_num_sub": ""
    },
    {
      "route_int_id": 1176,
      "route_name": "BARJE",
      "station_lng": 14.5116712282574,
      "station_direction": "",
      "station_name": "Ilovica",
      "station_ref_id": 603102,
      "station_lat": 46.0283243333925,
      "route_num": "19",
      "station_int_id": 2317,
      "route_num_sub": ""
    },
    {
      "route_int_id": 1176,
      "route_name": "BARJE",
      "station_lng": 14.5116712282574,
      "station_direction": "",
      "station_name": "Ilovica",
      "station_ref_id": 603102,
      "station_lat": 46.0283243333925,
      "route_num": "19",
      "station_int_id": 2317,
      "route_num_sub": ""
    },
    {
      "route_int_id": 1176,
      "route_name": "BARJE",
      "station_lng": 14.5116712282574,
      "station_direction": "",
      "station_name": "Ilovica",
      "station_ref_id": 603102,
      "station_lat": 46.0283243333925,
      "route_num": "19",
      "station_int_id": 2317,
      "route_num_sub": ""
    },
    {
      "route_int_id": 1176,
      "route_name": "BARJE",
      "station_lng": 14.5116712282574,
      "station_direction": "",
      "station_name": "Ilovica",
      "station_ref_id": 603102,
      "station_lat": 46.0283243333925,
      "route_num": "19",
      "station_int_id": 2317,
      "route_num_sub": ""
    },
    {
      "route_int_id": 1586,
      "route_name": "\u0160TEPANJSKO NAS.",
      "station_lng": 14.548200669132,
      "station_direction": "\u2192",
      "station_name": "\u0160tepanjsko naselje",
      "station_ref_id": 303043,
      "station_lat": 46.0535669144503,
      "route_num": "9",
      "station_int_id": 2108,
      "route_num_sub": ""
    },
    {
      "route_int_id": 1586,
      "route_name": "\u0160TEPANJSKO NAS.",
      "station_lng": 14.548200669132,
      "station_direction": "\u2192",
      "station_name": "\u0160tepanjsko naselje",
      "station_ref_id": 303043,
      "station_lat": 46.0535669144503,
      "route_num": "9",
      "station_int_id": 2108,
      "route_num_sub": ""
    },
    {
      "route_int_id": 1586,
      "route_name": "\u0160TEPANJSKO NAS.",
      "station_lng": 14.548200669132,
      "station_direction": "\u2192",
      "station_name": "\u0160tepanjsko naselje",
      "station_ref_id": 303043,
      "station_lat": 46.0535669144503,
      "route_num": "9",
      "station_int_id": 2108,
      "route_num_sub": ""
    },
    {
      "route_int_id": 988,
      "route_name": "SAVLJE",
      "station_lng": 14.5086353966768,
      "station_direction": "",
      "station_name": "7. septembra",
      "station_ref_id": 103112,
      "station_lat": 46.0898229796124,
      "route_num": "14",
      "station_int_id": 2216,
      "route_num_sub": ""
    },
    {
      "route_int_id": 988,
      "route_name": "SAVLJE",
      "station_lng": 14.5086353966768,
      "station_direction": "",
      "station_name": "7. septembra",
      "station_ref_id": 103112,
      "station_lat": 46.0898229796124,
      "route_num": "14",
      "station_int_id": 2216,
      "route_num_sub": ""
    },
    {
      "route_int_id": 346,
      "route_name": "\u0160TEPANJSKO NAS.",
      "station_lng": 14.454199290376,
      "station_direction": "\u2192",
      "station_name": "Omersova",
      "station_ref_id": 804201,
      "station_lat": 46.0740682324078,
      "route_num": "5",
      "station_int_id": 2035,
      "route_num_sub": ""
    },
    {
      "route_int_id": 346,
      "route_name": "\u0160TEPANJSKO NAS.",
      "station_lng": 14.454199290376,
      "station_direction": "\u2192",
      "station_name": "Omersova",
      "station_ref_id": 804201,
      "station_lat": 46.0740682324078,
      "route_num": "5",
      "station_int_id": 2035,
      "route_num_sub": ""
    },
    {
      "route_int_id": 346,
      "route_name": "\u0160TEPANJSKO NAS.",
      "station_lng": 14.454199290376,
      "station_direction": "\u2192",
      "station_name": "Omersova",
      "station_ref_id": 804201,
      "station_lat": 46.0740682324078,
      "route_num": "5",
      "station_int_id": 2035,
      "route_num_sub": ""
    },
    {
      "route_int_id": 346,
      "route_name": "\u0160TEPANJSKO NAS.",
      "station_lng": 14.454199290376,
      "station_direction": "\u2192",
      "station_name": "Omersova",
      "station_ref_id": 804201,
      "station_lat": 46.0740682324078,
      "route_num": "5",
      "station_int_id": 2035,
      "route_num_sub": ""
    },
    {
      "route_int_id": 790,
      "route_name": "BTC ATLANTIS",
      "station_lng": 14.544999032953,
      "station_direction": "\u2192",
      "station_name": "BTC-Emporium",
      "station_ref_id": 203141,
      "station_lat": 46.0621495427638,
      "route_num": "24",
      "station_int_id": 2250,
      "route_num_sub": ""
    },
    {
      "route_int_id": 790,
      "route_name": "BTC ATLANTIS",
      "station_lng": 14.544999032953,
      "station_direction": "\u2192",
      "station_name": "BTC-Emporium",
      "station_ref_id": 203141,
      "station_lat": 46.0621495427638,
      "route_num": "24",
      "station_int_id": 2250,
      "route_num_sub": ""
    },
    {
      "route_int_id": 790,
      "route_name": "BTC ATLANTIS",
      "station_lng": 14.544999032953,
      "station_direction": "\u2192",
      "station_name": "BTC-Emporium",
      "station_ref_id": 203141,
      "station_lat": 46.0621495427638,
      "route_num": "24",
      "station_int_id": 2250,
      "route_num_sub": ""
    },
    {
      "route_int_id": 790,
      "route_name": "BTC ATLANTIS",
      "station_lng": 14.544999032953,
      "station_direction": "\u2192",
      "station_name": "BTC-Emporium",
      "station_ref_id": 203141,
      "station_lat": 46.0621495427638,
      "route_num": "24",
      "station_int_id": 2250,
      "route_num_sub": ""
    },
    {
      "route_int_id": 790,
      "route_name": "BTC ATLANTIS",
      "station_lng": 14.544999032953,
      "station_direction": "\u2192",
      "station_name": "BTC-Emporium",
      "station_ref_id": 203141,
      "station_lat": 46.0621495427638,
      "route_num": "24",
      "station_int_id": 2250,
      "route_num_sub": ""
    },
    {
      "route_int_id": 972,
      "route_name": "LETALI\u0160KA",
      "station_lng": 14.4804184082228,
      "station_direction": "\u2192",
      "station_name": "Zgornja \u0160i\u0161ka",
      "station_ref_id": 803091,
      "station_lat": 46.0699732179614,
      "route_num": "7",
      "station_int_id": 1868,
      "route_num_sub": "L"
    },
    {
      "route_int_id": 972,
      "route_name": "LETALI\u0160KA",
      "station_lng": 14.4804184082228,
      "station_direction": "\u2192",
      "station_name": "Zgornja \u0160i\u0161ka",
      "station_ref_id": 803091,
      "station_lat": 46.0699732179614,
      "route_num": "7",
      "station_int_id": 1868,
      "route_num_sub": "L"
    },
    {
      "route_int_id": 1616,
      "route_name": "BE\u017dIGRAD",
      "station_lng": 14.5375551922354,
      "station_direction": "\u2192",
      "station_name": "\u0160tepanja vas",
      "station_ref_id": 403041,
      "station_lat": 46.048018191623,
      "route_num": "13",
      "station_int_id": 2161,
      "route_num_sub": ""
    },
    {
      "route_int_id": 1616,
      "route_name": "BE\u017dIGRAD",
      "station_lng": 14.5375551922354,
      "station_direction": "\u2192",
      "station_name": "\u0160tepanja vas",
      "station_ref_id": 403041,
      "station_lat": 46.048018191623,
      "route_num": "13",
      "station_int_id": 2161,
      "route_num_sub": ""
    },
    {
      "route_int_id": 1616,
      "route_name": "BE\u017dIGRAD",
      "station_lng": 14.5375551922354,
      "station_direction": "\u2192",
      "station_name": "\u0160tepanja vas",
      "station_ref_id": 403041,
      "station_lat": 46.048018191623,
      "route_num": "13",
      "station_int_id": 2161,
      "route_num_sub": ""
    },
    {
      "route_int_id": 789,
      "route_name": "C. STO\u017dICE P+R",
      "station_lng": 14.5643275095289,
      "station_direction": "\u2192",
      "station_name": "Hru\u0161evska",
      "station_ref_id": 404111,
      "station_lat": 46.0397776852003,
      "route_num": "24",
      "station_int_id": 3365,
      "route_num_sub": ""
    },
    {
      "route_int_id": 789,
      "route_name": "C. STO\u017dICE P+R",
      "station_lng": 14.5643275095289,
      "station_direction": "\u2192",
      "station_name": "Hru\u0161evska",
      "station_ref_id": 404111,
      "station_lat": 46.0397776852003,
      "route_num": "24",
      "station_int_id": 3365,
      "route_num_sub": ""
    },
    {
      "route_int_id": 1176,
      "route_name": "BARJE",
      "station_lng": 14.5047099987106,
      "station_direction": "\u2192",
      "station_name": "Veliki \u0161tradon",
      "station_ref_id": 603081,
      "station_lat": 46.0374530185592,
      "route_num": "19",
      "station_int_id": 1911,
      "route_num_sub": ""
    },
    {
      "route_int_id": 1176,
      "route_name": "BARJE",
      "station_lng": 14.5047099987106,
      "station_direction": "\u2192",
      "station_name": "Veliki \u0161tradon",
      "station_ref_id": 603081,
      "station_lat": 46.0374530185592,
      "route_num": "19",
      "station_int_id": 1911,
      "route_num_sub": ""
    },
    {
      "route_int_id": 1176,
      "route_name": "BARJE",
      "station_lng": 14.5047099987106,
      "station_direction": "\u2192",
      "station_name": "Veliki \u0161tradon",
      "station_ref_id": 603081,
      "station_lat": 46.0374530185592,
      "route_num": "19",
      "station_int_id": 1911,
      "route_num_sub": ""
    },
    {
      "route_int_id": 1176,
      "route_name": "BARJE",
      "station_lng": 14.5047099987106,
      "station_direction": "\u2192",
      "station_name": "Veliki \u0161tradon",
      "station_ref_id": 603081,
      "station_lat": 46.0374530185592,
      "route_num": "19",
      "station_int_id": 1911,
      "route_num_sub": ""
    },
    {
      "route_int_id": 1036,
      "route_name": "GARA\u017dA",
      "station_lng": 14.4694274912936,
      "station_direction": "\u2192",
      "station_name": "Ple\u0161i\u010deva",
      "station_ref_id": 803121,
      "station_lat": 46.0815100577848,
      "route_num": "7",
      "station_int_id": 1862,
      "route_num_sub": ""
    },
    {
      "route_int_id": 1036,
      "route_name": "GARA\u017dA",
      "station_lng": 14.4694274912936,
      "station_direction": "\u2192",
      "station_name": "Ple\u0161i\u010deva",
      "station_ref_id": 803121,
      "station_lat": 46.0815100577848,
      "route_num": "7",
      "station_int_id": 1862,
      "route_num_sub": ""
    },
    {
      "route_int_id": 1036,
      "route_name": "GARA\u017dA",
      "station_lng": 14.4694274912936,
      "station_direction": "\u2192",
      "station_name": "Ple\u0161i\u010deva",
      "station_ref_id": 803121,
      "station_lat": 46.0815100577848,
      "route_num": "7",
      "station_int_id": 1862,
      "route_num_sub": ""
    },
    {
      "route_int_id": 652,
      "route_name": "PODUTIK",
      "station_lng": 14.5137765606089,
      "station_direction": "\u2192",
      "station_name": "Ilirska",
      "station_ref_id": 501011,
      "station_lat": 46.0530533396928,
      "route_num": "5",
      "station_int_id": 2047,
      "route_num_sub": ""
    },
    {
      "route_int_id": 652,
      "route_name": "PODUTIK",
      "station_lng": 14.5137765606089,
      "station_direction": "\u2192",
      "station_name": "Ilirska",
      "station_ref_id": 501011,
      "station_lat": 46.0530533396928,
      "route_num": "5",
      "station_int_id": 2047,
      "route_num_sub": ""
    },
    {
      "route_int_id": 652,
      "route_name": "PODUTIK",
      "station_lng": 14.5137765606089,
      "station_direction": "\u2192",
      "station_name": "Ilirska",
      "station_ref_id": 501011,
      "station_lat": 46.0530533396928,
      "route_num": "5",
      "station_int_id": 2047,
      "route_num_sub": ""
    },
    {
      "route_num_sub": "",
      "station_name": "I\u017eanska",
      "route_int_id": 730,
      "route_name": "N.S. RUDNIK",
      "station_ref_id": 603122,
      "route_num": "27",
      "station_lat": 46.0349717611473,
      "station_lng": 14.5127596969969,
      "station_int_id": 3318,
      "station_direction": ""
    },
    {
      "route_int_id": 1064,
      "route_name": "BAVARSKI DVOR",
      "station_lng": 14.5354591916259,
      "station_direction": "\u2192",
      "station_name": "Gornji Rudnik",
      "station_ref_id": 504011,
      "station_lat": 46.0283415248652,
      "route_num": "3",
      "station_int_id": 2026,
      "route_num_sub": "N"
    },
    {
      "route_int_id": 1064,
      "route_name": "BAVARSKI DVOR",
      "station_lng": 14.5354591916259,
      "station_direction": "\u2192",
      "station_name": "Gornji Rudnik",
      "station_ref_id": 504011,
      "station_lat": 46.0283415248652,
      "route_num": "3",
      "station_int_id": 2026,
      "route_num_sub": "N"
    },
    {
      "route_int_id": 1064,
      "route_name": "BAVARSKI DVOR",
      "station_lng": 14.5354591916259,
      "station_direction": "\u2192",
      "station_name": "Gornji Rudnik",
      "station_ref_id": 504011,
      "station_lat": 46.0283415248652,
      "route_num": "3",
      "station_int_id": 2026,
      "route_num_sub": "N"
    },
    {
      "route_int_id": 1064,
      "route_name": "BAVARSKI DVOR",
      "station_lng": 14.5354591916259,
      "station_direction": "\u2192",
      "station_name": "Gornji Rudnik",
      "station_ref_id": 504011,
      "station_lat": 46.0283415248652,
      "route_num": "3",
      "station_int_id": 2026,
      "route_num_sub": "N"
    },
    {
      "route_int_id": 1064,
      "route_name": "BAVARSKI DVOR",
      "station_lng": 14.5354591916259,
      "station_direction": "\u2192",
      "station_name": "Gornji Rudnik",
      "station_ref_id": 504011,
      "station_lat": 46.0283415248652,
      "route_num": "3",
      "station_int_id": 2026,
      "route_num_sub": "N"
    },
    {
      "route_int_id": 1064,
      "route_name": "BAVARSKI DVOR",
      "station_lng": 14.5354591916259,
      "station_direction": "\u2192",
      "station_name": "Gornji Rudnik",
      "station_ref_id": 504011,
      "station_lat": 46.0283415248652,
      "route_num": "3",
      "station_int_id": 2026,
      "route_num_sub": "N"
    },
    {
      "route_int_id": 1387,
      "route_name": "KOLODVOR",
      "station_lng": 14.520355679893,
      "station_direction": "\u2192",
      "station_name": "Bo\u017ei\u010deva",
      "station_ref_id": 103191,
      "station_lat": 46.075776496368,
      "route_num": "18",
      "station_int_id": 3526,
      "route_num_sub": ""
    },
    {
      "route_int_id": 1387,
      "route_name": "KOLODVOR",
      "station_lng": 14.520355679893,
      "station_direction": "\u2192",
      "station_name": "Bo\u017ei\u010deva",
      "station_ref_id": 103191,
      "station_lat": 46.075776496368,
      "route_num": "18",
      "station_int_id": 3526,
      "route_num_sub": ""
    },
    {
      "route_int_id": 1387,
      "route_name": "KOLODVOR",
      "station_lng": 14.520355679893,
      "station_direction": "\u2192",
      "station_name": "Bo\u017ei\u010deva",
      "station_ref_id": 103191,
      "station_lat": 46.075776496368,
      "route_num": "18",
      "station_int_id": 3526,
      "route_num_sub": ""
    },
    {
      "route_int_id": 1387,
      "route_name": "KOLODVOR",
      "station_lng": 14.520355679893,
      "station_direction": "\u2192",
      "station_name": "Bo\u017ei\u010deva",
      "station_ref_id": 103191,
      "station_lat": 46.075776496368,
      "route_num": "18",
      "station_int_id": 3526,
      "route_num_sub": ""
    },
    {
      "route_num_sub": "L",
      "station_name": "Bratislavska",
      "route_int_id": 972,
      "route_name": "LETALI\u0160KA",
      "station_ref_id": 203182,
      "route_num": "7",
      "station_lat": 46.065833148618,
      "station_lng": 14.5510579735067,
      "station_int_id": 1881,
      "station_direction": ""
    },
    {
      "route_int_id": 1564,
      "route_name": "DOLGI MOST P+R",
      "station_lng": 14.51384,
      "station_direction": "\u2192",
      "station_name": "Ruski car",
      "station_ref_id": 103131,
      "station_lat": 46.09022,
      "route_num": "6",
      "station_int_id": 2075,
      "route_num_sub": ""
    },
    {
      "route_int_id": 1564,
      "route_name": "DOLGI MOST P+R",
      "station_lng": 14.51384,
      "station_direction": "\u2192",
      "station_name": "Ruski car",
      "station_ref_id": 103131,
      "station_lat": 46.09022,
      "route_num": "6",
      "station_int_id": 2075,
      "route_num_sub": ""
    },
    {
      "route_int_id": 1564,
      "route_name": "DOLGI MOST P+R",
      "station_lng": 14.51384,
      "station_direction": "\u2192",
      "station_name": "Ruski car",
      "station_ref_id": 103131,
      "station_lat": 46.09022,
      "route_num": "6",
      "station_int_id": 2075,
      "route_num_sub": ""
    },
    {
      "route_int_id": 1564,
      "route_name": "DOLGI MOST P+R",
      "station_lng": 14.51384,
      "station_direction": "\u2192",
      "station_name": "Ruski car",
      "station_ref_id": 103131,
      "station_lat": 46.09022,
      "route_num": "6",
      "station_int_id": 2075,
      "route_num_sub": ""
    },
    {
      "route_int_id": 1564,
      "route_name": "DOLGI MOST P+R",
      "station_lng": 14.51384,
      "station_direction": "\u2192",
      "station_name": "Ruski car",
      "station_ref_id": 103131,
      "station_lat": 46.09022,
      "route_num": "6",
      "station_int_id": 2075,
      "route_num_sub": ""
    },
    {
      "route_int_id": 1564,
      "route_name": "DOLGI MOST P+R",
      "station_lng": 14.51384,
      "station_direction": "\u2192",
      "station_name": "Ruski car",
      "station_ref_id": 103131,
      "station_lat": 46.09022,
      "route_num": "6",
      "station_int_id": 2075,
      "route_num_sub": ""
    },
    {
      "route_int_id": 1640,
      "route_name": "KOLODVOR",
      "station_lng": 14.4913580625216,
      "station_direction": "\u2192",
      "station_name": "Kovinarska",
      "station_ref_id": 803211,
      "station_lat": 46.0803964420806,
      "route_num": "18",
      "station_int_id": 3642,
      "route_num_sub": "L"
    },
    {
      "route_int_id": 1640,
      "route_name": "KOLODVOR",
      "station_lng": 14.4913580625216,
      "station_direction": "\u2192",
      "station_name": "Kovinarska",
      "station_ref_id": 803211,
      "station_lat": 46.0803964420806,
      "route_num": "18",
      "station_int_id": 3642,
      "route_num_sub": "L"
    },
    {
      "route_int_id": 1640,
      "route_name": "KOLODVOR",
      "station_lng": 14.4913580625216,
      "station_direction": "\u2192",
      "station_name": "Kovinarska",
      "station_ref_id": 803211,
      "station_lat": 46.0803964420806,
      "route_num": "18",
      "station_int_id": 3642,
      "route_num_sub": "L"
    },
    {
      "route_int_id": 1640,
      "route_name": "KOLODVOR",
      "station_lng": 14.4913580625216,
      "station_direction": "\u2192",
      "station_name": "Kovinarska",
      "station_ref_id": 803211,
      "station_lat": 46.0803964420806,
      "route_num": "18",
      "station_int_id": 3642,
      "route_num_sub": "L"
    },
    {
      "route_int_id": 1640,
      "route_name": "KOLODVOR",
      "station_lng": 14.4913580625216,
      "station_direction": "\u2192",
      "station_name": "Kovinarska",
      "station_ref_id": 803211,
      "station_lat": 46.0803964420806,
      "route_num": "18",
      "station_int_id": 3642,
      "route_num_sub": "L"
    },
    {
      "route_int_id": 1640,
      "route_name": "KOLODVOR",
      "station_lng": 14.4913580625216,
      "station_direction": "\u2192",
      "station_name": "Kovinarska",
      "station_ref_id": 803211,
      "station_lat": 46.0803964420806,
      "route_num": "18",
      "station_int_id": 3642,
      "route_num_sub": "L"
    },
    {
      "route_int_id": 1640,
      "route_name": "KOLODVOR",
      "station_lng": 14.4913580625216,
      "station_direction": "\u2192",
      "station_name": "Kovinarska",
      "station_ref_id": 803211,
      "station_lat": 46.0803964420806,
      "route_num": "18",
      "station_int_id": 3642,
      "route_num_sub": "L"
    },
    {
      "route_int_id": 1636,
      "route_name": "GAMELJNE",
      "station_lng": 14.4855071825561,
      "station_direction": "",
      "station_name": "Remiza",
      "station_ref_id": 803014,
      "station_lat": 46.0743539437374,
      "route_num": "1",
      "station_int_id": 1935,
      "route_num_sub": "D"
    },
    {
      "route_int_id": 1636,
      "route_name": "GAMELJNE",
      "station_lng": 14.4855071825561,
      "station_direction": "",
      "station_name": "Remiza",
      "station_ref_id": 803014,
      "station_lat": 46.0743539437374,
      "route_num": "1",
      "station_int_id": 1935,
      "route_num_sub": "D"
    },
    {
      "route_int_id": 1636,
      "route_name": "GAMELJNE",
      "station_lng": 14.4855071825561,
      "station_direction": "",
      "station_name": "Remiza",
      "station_ref_id": 803014,
      "station_lat": 46.0743539437374,
      "route_num": "1",
      "station_int_id": 1935,
      "route_num_sub": "D"
    },
    {
      "route_int_id": 1636,
      "route_name": "GAMELJNE",
      "station_lng": 14.4855071825561,
      "station_direction": "",
      "station_name": "Remiza",
      "station_ref_id": 803014,
      "station_lat": 46.0743539437374,
      "route_num": "1",
      "station_int_id": 1935,
      "route_num_sub": "D"
    },
    {
      "route_int_id": 1636,
      "route_name": "GAMELJNE",
      "station_lng": 14.4855071825561,
      "station_direction": "",
      "station_name": "Remiza",
      "station_ref_id": 803014,
      "station_lat": 46.0743539437374,
      "route_num": "1",
      "station_int_id": 1935,
      "route_num_sub": "D"
    },
    {
      "route_int_id": 1636,
      "route_name": "GAMELJNE",
      "station_lng": 14.4855071825561,
      "station_direction": "",
      "station_name": "Remiza",
      "station_ref_id": 803014,
      "station_lat": 46.0743539437374,
      "route_num": "1",
      "station_int_id": 1935,
      "route_num_sub": "D"
    },
    {
      "route_int_id": 1636,
      "route_name": "GAMELJNE",
      "station_lng": 14.4855071825561,
      "station_direction": "",
      "station_name": "Remiza",
      "station_ref_id": 803014,
      "station_lat": 46.0743539437374,
      "route_num": "1",
      "station_int_id": 1935,
      "route_num_sub": "D"
    },
    {
      "route_int_id": 1636,
      "route_name": "GAMELJNE",
      "station_lng": 14.4855071825561,
      "station_direction": "",
      "station_name": "Remiza",
      "station_ref_id": 803014,
      "station_lat": 46.0743539437374,
      "route_num": "1",
      "station_int_id": 1935,
      "route_num_sub": "D"
    },
    {
      "route_int_id": 1636,
      "route_name": "GAMELJNE",
      "station_lng": 14.4855071825561,
      "station_direction": "",
      "station_name": "Remiza",
      "station_ref_id": 803014,
      "station_lat": 46.0743539437374,
      "route_num": "1",
      "station_int_id": 1935,
      "route_num_sub": "D"
    },
    {
      "route_int_id": 1636,
      "route_name": "GAMELJNE",
      "station_lng": 14.4855071825561,
      "station_direction": "",
      "station_name": "Remiza",
      "station_ref_id": 803014,
      "station_lat": 46.0743539437374,
      "route_num": "1",
      "station_int_id": 1935,
      "route_num_sub": "D"
    },
    {
      "route_int_id": 1636,
      "route_name": "GAMELJNE",
      "station_lng": 14.4855071825561,
      "station_direction": "",
      "station_name": "Remiza",
      "station_ref_id": 803014,
      "station_lat": 46.0743539437374,
      "route_num": "1",
      "station_int_id": 1935,
      "route_num_sub": "D"
    },
    {
      "route_int_id": 1636,
      "route_name": "GAMELJNE",
      "station_lng": 14.4855071825561,
      "station_direction": "",
      "station_name": "Remiza",
      "station_ref_id": 803014,
      "station_lat": 46.0743539437374,
      "route_num": "1",
      "station_int_id": 1935,
      "route_num_sub": "D"
    },
    {
      "route_int_id": 1636,
      "route_name": "GAMELJNE",
      "station_lng": 14.4855071825561,
      "station_direction": "",
      "station_name": "Remiza",
      "station_ref_id": 803014,
      "station_lat": 46.0743539437374,
      "route_num": "1",
      "station_int_id": 1935,
      "route_num_sub": "D"
    },
    {
      "route_int_id": 1636,
      "route_name": "GAMELJNE",
      "station_lng": 14.4855071825561,
      "station_direction": "",
      "station_name": "Remiza",
      "station_ref_id": 803014,
      "station_lat": 46.0743539437374,
      "route_num": "1",
      "station_int_id": 1935,
      "route_num_sub": "D"
    },
    {
      "route_int_id": 1636,
      "route_name": "GAMELJNE",
      "station_lng": 14.4855071825561,
      "station_direction": "",
      "station_name": "Remiza",
      "station_ref_id": 803014,
      "station_lat": 46.0743539437374,
      "route_num": "1",
      "station_int_id": 1935,
      "route_num_sub": "D"
    },
    {
      "route_int_id": 1636,
      "route_name": "GAMELJNE",
      "station_lng": 14.4855071825561,
      "station_direction": "",
      "station_name": "Remiza",
      "station_ref_id": 803014,
      "station_lat": 46.0743539437374,
      "route_num": "1",
      "station_int_id": 1935,
      "route_num_sub": "D"
    },
    {
      "route_int_id": 789,
      "route_name": "C. STO\u017dICE P+R",
      "station_lng": 14.5419185875166,
      "station_direction": "",
      "station_name": "Zalo\u0161ka",
      "station_ref_id": 303024,
      "station_lat": 46.0557930676559,
      "route_num": "24",
      "station_int_id": 2111,
      "route_num_sub": ""
    },
    {
      "route_int_id": 789,
      "route_name": "C. STO\u017dICE P+R",
      "station_lng": 14.5419185875166,
      "station_direction": "",
      "station_name": "Zalo\u0161ka",
      "station_ref_id": 303024,
      "station_lat": 46.0557930676559,
      "route_num": "24",
      "station_int_id": 2111,
      "route_num_sub": ""
    },
    {
      "route_int_id": 789,
      "route_name": "C. STO\u017dICE P+R",
      "station_lng": 14.5419185875166,
      "station_direction": "",
      "station_name": "Zalo\u0161ka",
      "station_ref_id": 303024,
      "station_lat": 46.0557930676559,
      "route_num": "24",
      "station_int_id": 2111,
      "route_num_sub": ""
    },
    {
      "route_int_id": 789,
      "route_name": "C. STO\u017dICE P+R",
      "station_lng": 14.5419185875166,
      "station_direction": "",
      "station_name": "Zalo\u0161ka",
      "station_ref_id": 303024,
      "station_lat": 46.0557930676559,
      "route_num": "24",
      "station_int_id": 2111,
      "route_num_sub": ""
    },
    {
      "route_int_id": 789,
      "route_name": "C. STO\u017dICE P+R",
      "station_lng": 14.5419185875166,
      "station_direction": "",
      "station_name": "Zalo\u0161ka",
      "station_ref_id": 303024,
      "station_lat": 46.0557930676559,
      "route_num": "24",
      "station_int_id": 2111,
      "route_num_sub": ""
    },
    {
      "route_int_id": 789,
      "route_name": "C. STO\u017dICE P+R",
      "station_lng": 14.5419185875166,
      "station_direction": "",
      "station_name": "Zalo\u0161ka",
      "station_ref_id": 303024,
      "station_lat": 46.0557930676559,
      "route_num": "24",
      "station_int_id": 2111,
      "route_num_sub": ""
    },
    {
      "route_int_id": 789,
      "route_name": "C. STO\u017dICE P+R",
      "station_lng": 14.5419185875166,
      "station_direction": "",
      "station_name": "Zalo\u0161ka",
      "station_ref_id": 303024,
      "station_lat": 46.0557930676559,
      "route_num": "24",
      "station_int_id": 2111,
      "route_num_sub": ""
    },
    {
      "route_int_id": 789,
      "route_name": "C. STO\u017dICE P+R",
      "station_lng": 14.5419185875166,
      "station_direction": "",
      "station_name": "Zalo\u0161ka",
      "station_ref_id": 303024,
      "station_lat": 46.0557930676559,
      "route_num": "24",
      "station_int_id": 2111,
      "route_num_sub": ""
    },
    {
      "route_int_id": 726,
      "route_name": "ZADOBROVA",
      "station_lng": 14.4663668666688,
      "station_direction": "\u2192",
      "station_name": "\u0160entvid",
      "station_ref_id": 804041,
      "station_lat": 46.095469885169,
      "route_num": "25",
      "station_int_id": 1920,
      "route_num_sub": ""
    },
    {
      "route_int_id": 726,
      "route_name": "ZADOBROVA",
      "station_lng": 14.4663668666688,
      "station_direction": "\u2192",
      "station_name": "\u0160entvid",
      "station_ref_id": 804041,
      "station_lat": 46.095469885169,
      "route_num": "25",
      "station_int_id": 1920,
      "route_num_sub": ""
    },
    {
      "route_int_id": 726,
      "route_name": "ZADOBROVA",
      "station_lng": 14.4663668666688,
      "station_direction": "\u2192",
      "station_name": "\u0160entvid",
      "station_ref_id": 804041,
      "station_lat": 46.095469885169,
      "route_num": "25",
      "station_int_id": 1920,
      "route_num_sub": ""
    },
    {
      "route_int_id": 726,
      "route_name": "ZADOBROVA",
      "station_lng": 14.4663668666688,
      "station_direction": "\u2192",
      "station_name": "\u0160entvid",
      "station_ref_id": 804041,
      "station_lat": 46.095469885169,
      "route_num": "25",
      "station_int_id": 1920,
      "route_num_sub": ""
    },
    {
      "route_int_id": 726,
      "route_name": "ZADOBROVA",
      "station_lng": 14.4663668666688,
      "station_direction": "\u2192",
      "station_name": "\u0160entvid",
      "station_ref_id": 804041,
      "station_lat": 46.095469885169,
      "route_num": "25",
      "station_int_id": 1920,
      "route_num_sub": ""
    },
    {
      "route_int_id": 726,
      "route_name": "ZADOBROVA",
      "station_lng": 14.4663668666688,
      "station_direction": "\u2192",
      "station_name": "\u0160entvid",
      "station_ref_id": 804041,
      "station_lat": 46.095469885169,
      "route_num": "25",
      "station_int_id": 1920,
      "route_num_sub": ""
    },
    {
      "route_int_id": 726,
      "route_name": "ZADOBROVA",
      "station_lng": 14.4663668666688,
      "station_direction": "\u2192",
      "station_name": "\u0160entvid",
      "station_ref_id": 804041,
      "station_lat": 46.095469885169,
      "route_num": "25",
      "station_int_id": 1920,
      "route_num_sub": ""
    },
    {
      "route_int_id": 726,
      "route_name": "ZADOBROVA",
      "station_lng": 14.4663668666688,
      "station_direction": "\u2192",
      "station_name": "\u0160entvid",
      "station_ref_id": 804041,
      "station_lat": 46.095469885169,
      "route_num": "25",
      "station_int_id": 1920,
      "route_num_sub": ""
    },
    {
      "route_int_id": 726,
      "route_name": "ZADOBROVA",
      "station_lng": 14.4663668666688,
      "station_direction": "\u2192",
      "station_name": "\u0160entvid",
      "station_ref_id": 804041,
      "station_lat": 46.095469885169,
      "route_num": "25",
      "station_int_id": 1920,
      "route_num_sub": ""
    },
    {
      "route_int_id": 726,
      "route_name": "ZADOBROVA",
      "station_lng": 14.4663668666688,
      "station_direction": "\u2192",
      "station_name": "\u0160entvid",
      "station_ref_id": 804041,
      "station_lat": 46.095469885169,
      "route_num": "25",
      "station_int_id": 1920,
      "route_num_sub": ""
    },
    {
      "route_int_id": 726,
      "route_name": "ZADOBROVA",
      "station_lng": 14.4663668666688,
      "station_direction": "\u2192",
      "station_name": "\u0160entvid",
      "station_ref_id": 804041,
      "station_lat": 46.095469885169,
      "route_num": "25",
      "station_int_id": 1920,
      "route_num_sub": ""
    },
    {
      "route_int_id": 726,
      "route_name": "ZADOBROVA",
      "station_lng": 14.4663668666688,
      "station_direction": "\u2192",
      "station_name": "\u0160entvid",
      "station_ref_id": 804041,
      "station_lat": 46.095469885169,
      "route_num": "25",
      "station_int_id": 1920,
      "route_num_sub": ""
    },
    {
      "route_int_id": 726,
      "route_name": "ZADOBROVA",
      "station_lng": 14.4663668666688,
      "station_direction": "\u2192",
      "station_name": "\u0160entvid",
      "station_ref_id": 804041,
      "station_lat": 46.095469885169,
      "route_num": "25",
      "station_int_id": 1920,
      "route_num_sub": ""
    },
    {
      "route_int_id": 726,
      "route_name": "ZADOBROVA",
      "station_lng": 14.4663668666688,
      "station_direction": "\u2192",
      "station_name": "\u0160entvid",
      "station_ref_id": 804041,
      "station_lat": 46.095469885169,
      "route_num": "25",
      "station_int_id": 1920,
      "route_num_sub": ""
    },
    {
      "route_int_id": 726,
      "route_name": "ZADOBROVA",
      "station_lng": 14.4663668666688,
      "station_direction": "\u2192",
      "station_name": "\u0160entvid",
      "station_ref_id": 804041,
      "station_lat": 46.095469885169,
      "route_num": "25",
      "station_int_id": 1920,
      "route_num_sub": ""
    },
    {
      "route_int_id": 726,
      "route_name": "ZADOBROVA",
      "station_lng": 14.4663668666688,
      "station_direction": "\u2192",
      "station_name": "\u0160entvid",
      "station_ref_id": 804041,
      "station_lat": 46.095469885169,
      "route_num": "25",
      "station_int_id": 1920,
      "route_num_sub": ""
    },
    {
      "route_int_id": 1179,
      "route_name": "TOMA\u010cEVO",
      "station_lng": 14.5106727296962,
      "station_direction": "\u2192",
      "station_name": "I\u0161ki most",
      "station_ref_id": 604011,
      "station_lat": 46.0196012053216,
      "route_num": "19",
      "station_int_id": 2322,
      "route_num_sub": ""
    },
    {
      "route_int_id": 1179,
      "route_name": "TOMA\u010cEVO",
      "station_lng": 14.5106727296962,
      "station_direction": "\u2192",
      "station_name": "I\u0161ki most",
      "station_ref_id": 604011,
      "station_lat": 46.0196012053216,
      "route_num": "19",
      "station_int_id": 2322,
      "route_num_sub": ""
    },
    {
      "route_int_id": 1179,
      "route_name": "TOMA\u010cEVO",
      "station_lng": 14.5106727296962,
      "station_direction": "\u2192",
      "station_name": "I\u0161ki most",
      "station_ref_id": 604011,
      "station_lat": 46.0196012053216,
      "route_num": "19",
      "station_int_id": 2322,
      "route_num_sub": ""
    },
    {
      "route_int_id": 1179,
      "route_name": "TOMA\u010cEVO",
      "station_lng": 14.5106727296962,
      "station_direction": "\u2192",
      "station_name": "I\u0161ki most",
      "station_ref_id": 604011,
      "station_lat": 46.0196012053216,
      "route_num": "19",
      "station_int_id": 2322,
      "route_num_sub": ""
    },
    {
      "route_int_id": 1179,
      "route_name": "TOMA\u010cEVO",
      "station_lng": 14.5106727296962,
      "station_direction": "\u2192",
      "station_name": "I\u0161ki most",
      "station_ref_id": 604011,
      "station_lat": 46.0196012053216,
      "route_num": "19",
      "station_int_id": 2322,
      "route_num_sub": ""
    },
    {
      "route_int_id": 1179,
      "route_name": "TOMA\u010cEVO",
      "station_lng": 14.5106727296962,
      "station_direction": "\u2192",
      "station_name": "I\u0161ki most",
      "station_ref_id": 604011,
      "station_lat": 46.0196012053216,
      "route_num": "19",
      "station_int_id": 2322,
      "route_num_sub": ""
    },
    {
      "route_int_id": 1179,
      "route_name": "TOMA\u010cEVO",
      "station_lng": 14.5106727296962,
      "station_direction": "\u2192",
      "station_name": "I\u0161ki most",
      "station_ref_id": 604011,
      "station_lat": 46.0196012053216,
      "route_num": "19",
      "station_int_id": 2322,
      "route_num_sub": ""
    },
    {
      "route_int_id": 1563,
      "route_name": "NOTRANJE GORICE",
      "station_lng": 14.489879993166,
      "station_direction": "",
      "station_name": "Hajdrihova",
      "station_ref_id": 602032,
      "station_lat": 46.0458430605145,
      "route_num": "6",
      "station_int_id": 1952,
      "route_num_sub": "B"
    },
    {
      "route_int_id": 1563,
      "route_name": "NOTRANJE GORICE",
      "station_lng": 14.489879993166,
      "station_direction": "",
      "station_name": "Hajdrihova",
      "station_ref_id": 602032,
      "station_lat": 46.0458430605145,
      "route_num": "6",
      "station_int_id": 1952,
      "route_num_sub": "B"
    },
    {
      "route_int_id": 1563,
      "route_name": "NOTRANJE GORICE",
      "station_lng": 14.489879993166,
      "station_direction": "",
      "station_name": "Hajdrihova",
      "station_ref_id": 602032,
      "station_lat": 46.0458430605145,
      "route_num": "6",
      "station_int_id": 1952,
      "route_num_sub": "B"
    },
    {
      "route_int_id": 1563,
      "route_name": "NOTRANJE GORICE",
      "station_lng": 14.489879993166,
      "station_direction": "",
      "station_name": "Hajdrihova",
      "station_ref_id": 602032,
      "station_lat": 46.0458430605145,
      "route_num": "6",
      "station_int_id": 1952,
      "route_num_sub": "B"
    },
    {
      "route_int_id": 1563,
      "route_name": "NOTRANJE GORICE",
      "station_lng": 14.489879993166,
      "station_direction": "",
      "station_name": "Hajdrihova",
      "station_ref_id": 602032,
      "station_lat": 46.0458430605145,
      "route_num": "6",
      "station_int_id": 1952,
      "route_num_sub": "B"
    },
    {
      "route_int_id": 1563,
      "route_name": "NOTRANJE GORICE",
      "station_lng": 14.489879993166,
      "station_direction": "",
      "station_name": "Hajdrihova",
      "station_ref_id": 602032,
      "station_lat": 46.0458430605145,
      "route_num": "6",
      "station_int_id": 1952,
      "route_num_sub": "B"
    },
    {
      "route_int_id": 1563,
      "route_name": "NOTRANJE GORICE",
      "station_lng": 14.489879993166,
      "station_direction": "",
      "station_name": "Hajdrihova",
      "station_ref_id": 602032,
      "station_lat": 46.0458430605145,
      "route_num": "6",
      "station_int_id": 1952,
      "route_num_sub": "B"
    },
    {
      "route_int_id": 1372,
      "route_name": "ZALOG",
      "station_lng": 14.519127204168,
      "station_direction": "\u2192",
      "station_name": "Kardeljeva plo\u0161\u010dad",
      "station_ref_id": 102091,
      "station_lat": 46.0717802316615,
      "route_num": "20",
      "station_int_id": 2327,
      "route_num_sub": "Z"
    },
    {
      "route_int_id": 1372,
      "route_name": "ZALOG",
      "station_lng": 14.519127204168,
      "station_direction": "\u2192",
      "station_name": "Kardeljeva plo\u0161\u010dad",
      "station_ref_id": 102091,
      "station_lat": 46.0717802316615,
      "route_num": "20",
      "station_int_id": 2327,
      "route_num_sub": "Z"
    },
    {
      "route_int_id": 1372,
      "route_name": "ZALOG",
      "station_lng": 14.519127204168,
      "station_direction": "\u2192",
      "station_name": "Kardeljeva plo\u0161\u010dad",
      "station_ref_id": 102091,
      "station_lat": 46.0717802316615,
      "route_num": "20",
      "station_int_id": 2327,
      "route_num_sub": "Z"
    },
    {
      "route_int_id": 1372,
      "route_name": "ZALOG",
      "station_lng": 14.519127204168,
      "station_direction": "\u2192",
      "station_name": "Kardeljeva plo\u0161\u010dad",
      "station_ref_id": 102091,
      "station_lat": 46.0717802316615,
      "route_num": "20",
      "station_int_id": 2327,
      "route_num_sub": "Z"
    },
    {
      "route_int_id": 1372,
      "route_name": "ZALOG",
      "station_lng": 14.519127204168,
      "station_direction": "\u2192",
      "station_name": "Kardeljeva plo\u0161\u010dad",
      "station_ref_id": 102091,
      "station_lat": 46.0717802316615,
      "route_num": "20",
      "station_int_id": 2327,
      "route_num_sub": "Z"
    },
    {
      "route_int_id": 1312,
      "route_name": "GARA\u017dA",
      "station_lng": 14.5122216455221,
      "station_direction": "\u2192",
      "station_name": "Barje",
      "station_ref_id": 604023,
      "station_lat": 46.0149206439703,
      "route_num": "19",
      "station_int_id": 3571,
      "route_num_sub": ""
    },
    {
      "route_int_id": 1312,
      "route_name": "GARA\u017dA",
      "station_lng": 14.5122216455221,
      "station_direction": "\u2192",
      "station_name": "Barje",
      "station_ref_id": 604023,
      "station_lat": 46.0149206439703,
      "route_num": "19",
      "station_int_id": 3571,
      "route_num_sub": ""
    },
    {
      "route_int_id": 1312,
      "route_name": "GARA\u017dA",
      "station_lng": 14.5122216455221,
      "station_direction": "\u2192",
      "station_name": "Barje",
      "station_ref_id": 604023,
      "station_lat": 46.0149206439703,
      "route_num": "19",
      "station_int_id": 3571,
      "route_num_sub": ""
    },
    {
      "route_int_id": 1312,
      "route_name": "GARA\u017dA",
      "station_lng": 14.5122216455221,
      "station_direction": "\u2192",
      "station_name": "Barje",
      "station_ref_id": 604023,
      "station_lat": 46.0149206439703,
      "route_num": "19",
      "station_int_id": 3571,
      "route_num_sub": ""
    },
    {
      "route_int_id": 1312,
      "route_name": "GARA\u017dA",
      "station_lng": 14.5122216455221,
      "station_direction": "\u2192",
      "station_name": "Barje",
      "station_ref_id": 604023,
      "station_lat": 46.0149206439703,
      "route_num": "19",
      "station_int_id": 3571,
      "route_num_sub": ""
    },
    {
      "route_int_id": 1312,
      "route_name": "GARA\u017dA",
      "station_lng": 14.5122216455221,
      "station_direction": "\u2192",
      "station_name": "Barje",
      "station_ref_id": 604023,
      "station_lat": 46.0149206439703,
      "route_num": "19",
      "station_int_id": 3571,
      "route_num_sub": ""
    },
    {
      "route_int_id": 1146,
      "route_name": "BE\u017dIGRAD",
      "station_lng": 14.5171085645323,
      "station_direction": "\u2192",
      "station_name": "Streli\u0161\u010de",
      "station_ref_id": 503011,
      "station_lat": 46.0393406347181,
      "route_num": "3",
      "station_int_id": 2018,
      "route_num_sub": "G"
    },
    {
      "route_int_id": 1146,
      "route_name": "BE\u017dIGRAD",
      "station_lng": 14.5171085645323,
      "station_direction": "\u2192",
      "station_name": "Streli\u0161\u010de",
      "station_ref_id": 503011,
      "station_lat": 46.0393406347181,
      "route_num": "3",
      "station_int_id": 2018,
      "route_num_sub": "G"
    },
    {
      "route_int_id": 1146,
      "route_name": "BE\u017dIGRAD",
      "station_lng": 14.5171085645323,
      "station_direction": "\u2192",
      "station_name": "Streli\u0161\u010de",
      "station_ref_id": 503011,
      "station_lat": 46.0393406347181,
      "route_num": "3",
      "station_int_id": 2018,
      "route_num_sub": "G"
    },
    {
      "route_int_id": 1146,
      "route_name": "BE\u017dIGRAD",
      "station_lng": 14.5171085645323,
      "station_direction": "\u2192",
      "station_name": "Streli\u0161\u010de",
      "station_ref_id": 503011,
      "station_lat": 46.0393406347181,
      "route_num": "3",
      "station_int_id": 2018,
      "route_num_sub": "G"
    },
    {
      "route_int_id": 1146,
      "route_name": "BE\u017dIGRAD",
      "station_lng": 14.5171085645323,
      "station_direction": "\u2192",
      "station_name": "Streli\u0161\u010de",
      "station_ref_id": 503011,
      "station_lat": 46.0393406347181,
      "route_num": "3",
      "station_int_id": 2018,
      "route_num_sub": "G"
    },
    {
      "route_int_id": 1146,
      "route_name": "BE\u017dIGRAD",
      "station_lng": 14.5171085645323,
      "station_direction": "\u2192",
      "station_name": "Streli\u0161\u010de",
      "station_ref_id": 503011,
      "station_lat": 46.0393406347181,
      "route_num": "3",
      "station_int_id": 2018,
      "route_num_sub": "G"
    },
    {
      "route_int_id": 1146,
      "route_name": "BE\u017dIGRAD",
      "station_lng": 14.5171085645323,
      "station_direction": "\u2192",
      "station_name": "Streli\u0161\u010de",
      "station_ref_id": 503011,
      "station_lat": 46.0393406347181,
      "route_num": "3",
      "station_int_id": 2018,
      "route_num_sub": "G"
    },
    {
      "route_int_id": 1146,
      "route_name": "BE\u017dIGRAD",
      "station_lng": 14.5171085645323,
      "station_direction": "\u2192",
      "station_name": "Streli\u0161\u010de",
      "station_ref_id": 503011,
      "station_lat": 46.0393406347181,
      "route_num": "3",
      "station_int_id": 2018,
      "route_num_sub": "G"
    },
    {
      "route_int_id": 1146,
      "route_name": "BE\u017dIGRAD",
      "station_lng": 14.5171085645323,
      "station_direction": "\u2192",
      "station_name": "Streli\u0161\u010de",
      "station_ref_id": 503011,
      "station_lat": 46.0393406347181,
      "route_num": "3",
      "station_int_id": 2018,
      "route_num_sub": "G"
    },
    {
      "route_int_id": 1179,
      "route_name": "TOMA\u010cEVO",
      "station_lng": 14.5230283655615,
      "station_direction": "",
      "station_name": "Savske stolpnice",
      "station_ref_id": 202032,
      "station_lat": 46.065866186599,
      "route_num": "19",
      "station_int_id": 1879,
      "route_num_sub": ""
    },
    {
      "route_int_id": 1179,
      "route_name": "TOMA\u010cEVO",
      "station_lng": 14.5230283655615,
      "station_direction": "",
      "station_name": "Savske stolpnice",
      "station_ref_id": 202032,
      "station_lat": 46.065866186599,
      "route_num": "19",
      "station_int_id": 1879,
      "route_num_sub": ""
    },